stop_id,stop_code,stop_name,stop_desc,stop_lat,stop_lon,stop_url,location_type,parent_station
9483,,"1-asis Lentvaris",,54.64437,25.06552,https://www.stops.lt/vilnius/index.html#stop/3906,,
9560,,"AP vartai",,54.72120,25.29556,https://www.stops.lt/vilnius/index.html#stop/0018,,
9102,,"Bijūnų st.",,54.66740,25.21588,https://www.stops.lt/vilnius/index.html#stop/1631,,
16291,,"Geležinio Vilko st.",,54.75762,25.27183,https://www.stops.lt/vilnius/index.html#stop/2145,,
16295,,"Geležinio Vilko st.",,54.75848,25.27229,https://www.stops.lt/vilnius/index.html#stop/2146,,
8258,,"Kaimelio žiedas",,54.73141,25.24430,https://www.stops.lt/vilnius/index.html#stop/3890,,
16305,,"Kairėnai",,54.73646,25.40379,https://www.stops.lt/vilnius/index.html#stop/1015,,
16306,,"Kairėnai",,54.73664,25.40210,https://www.stops.lt/vilnius/index.html#stop/3526,,
10310,,"Skirgiškės",,54.82865,25.36410,https://www.stops.lt/vilnius/index.html#stop/2300,,
10359,,"Vikingų slėnis",,54.65304,25.28045,https://www.stops.lt/vilnius/index.html#stop/1523,,
16307,,"Kairėnai",,54.73719,25.40245,https://www.stops.lt/vilnius/index.html#stop/1029,,
9481,,"Bališkės",,54.64632,25.09966,https://www.stops.lt/vilnius/index.html#stop/3904,,
9482,,"Bališkės",,54.64613,25.09864,https://www.stops.lt/vilnius/index.html#stop/3905,,
8291,,"Mykolo Lietuvio st.",,54.74380,25.22603,https://www.stops.lt/vilnius/index.html#stop/3838,,
16323,,"Mykolo Lietuvio st.",,54.74254,25.22692,https://www.stops.lt/vilnius/index.html#stop/3837,,
1017,,"Antakalnio žiedas",,54.72291,25.31872,https://www.stops.lt/vilnius/index.html#stop/1118,,
5483,,"Antakalnio žiedas",,54.72232,25.31887,https://www.stops.lt/vilnius/index.html#stop/1118a,,
5485,,"Antakalnio žiedas",,54.72274,25.31912,https://www.stops.lt/vilnius/index.html#stop/1118c,,
7562,,"Antakalnio žiedas",,54.72291,25.31872,https://www.stops.lt/vilnius/index.html#stop/1133,,
5118,,"Antakalnis",,54.71960,25.31724,https://www.stops.lt/vilnius/index.html#stop/1115,,
6711,,"Antakalnis",,54.72106,25.31821,https://www.stops.lt/vilnius/index.html#stop/1116,,
5095,,"Klinikų st.",,54.71125,25.31486,https://www.stops.lt/vilnius/index.html#stop/1110,,
5096,,"Klinikų st.",,54.71058,25.31437,https://www.stops.lt/vilnius/index.html#stop/1109,,
5820,,"Leono Sapiegos st.",,54.69630,25.30809,https://www.stops.lt/vilnius/index.html#stop/1103,,
5826,,"Leono Sapiegos st.",,54.69697,25.30873,https://www.stops.lt/vilnius/index.html#stop/1104,,
5819,,"Petro Vileišio st.",,54.70165,25.30922,https://www.stops.lt/vilnius/index.html#stop/1105,,
6702,,"Petro Vileišio st.",,54.70313,25.31002,https://www.stops.lt/vilnius/index.html#stop/1106,,
5092,,"Šilo tiltas",,54.70545,25.31096,https://www.stops.lt/vilnius/index.html#stop/1108,,
5818,,"Šilo tiltas",,54.70447,25.31024,https://www.stops.lt/vilnius/index.html#stop/1107,,
1035,,"Tverečiaus st.",,54.71619,25.31646,https://www.stops.lt/vilnius/index.html#stop/1113,,
5119,,"Tverečiaus st.",,54.71750,25.31659,https://www.stops.lt/vilnius/index.html#stop/1114,,
5476,,"Lizdeikos st.",,54.72728,25.31552,https://www.stops.lt/vilnius/index.html#stop/1121,,
5490,,"Lizdeikos st.",,54.72720,25.31625,https://www.stops.lt/vilnius/index.html#stop/1132,,
741,,"Nemenčinės plentas",,54.72278,25.32004,https://www.stops.lt/vilnius/index.html#stop/1119,,
5117,,"Nemenčinės plentas",,54.72385,25.32007,https://www.stops.lt/vilnius/index.html#stop/1117,,
3566,,"Saulėtekis",,54.72719,25.32671,https://www.stops.lt/vilnius/index.html#stop/1021,,
5103,,"Saulėtekis",,54.72622,25.32482,https://www.stops.lt/vilnius/index.html#stop/1122,,
5107,,"Gedimino technikos universitetas",,54.72385,25.33566,https://www.stops.lt/vilnius/index.html#stop/1003,,
5116,,"Gedimino technikos universitetas",,54.72412,25.33451,https://www.stops.lt/vilnius/index.html#stop/1002,,
5104,,"Saulėtekis",,54.72624,25.32752,https://www.stops.lt/vilnius/index.html#stop/1001,,
5105,,"Vilniaus universitetas",,54.72454,25.33199,https://www.stops.lt/vilnius/index.html#stop/1023,,
6715,,"Vilniaus universitetas",,54.72489,25.33134,https://www.stops.lt/vilnius/index.html#stop/1022,,
5091,,"Šilo tiltas",,54.70519,25.31007,https://www.stops.lt/vilnius/index.html#stop/1129,,
6886,,"Lyglaukiai",,54.70277,25.35406,https://www.stops.lt/vilnius/index.html#stop/1126,,
6882,,"Šilo st.",,54.69905,25.34770,https://www.stops.lt/vilnius/index.html#stop/1127,,
6880,,"Viršupis",,54.69579,25.34397,https://www.stops.lt/vilnius/index.html#stop/1128,,
4520,,"Bistryčios st.",,54.70840,25.33044,https://www.stops.lt/vilnius/index.html#stop/1130,,
4521,,"Bistryčios st.",,54.70839,25.32956,https://www.stops.lt/vilnius/index.html#stop/1131,,
6720,,"Klinikų st.",,54.71161,25.31573,https://www.stops.lt/vilnius/index.html#stop/1112,,
6723,,"Klinikų st.",,54.71134,25.31669,https://www.stops.lt/vilnius/index.html#stop/1111,,
1167,,"Žolyno st.",,54.70782,25.33847,https://www.stops.lt/vilnius/index.html#stop/1125,,
10530,,"Žilvičių st.",,54.70684,25.38076,https://www.stops.lt/vilnius/index.html#stop/2297,,
10531,,"Žilvičių st.",,54.70689,25.38114,https://www.stops.lt/vilnius/index.html#stop/2296,,
8800,,"Klinikų st.",,54.71124,25.31498,https://www.stops.lt/vilnius/index.html#stop/1110a,,
9755,,"Mileišiškės",,54.71176,25.34174,https://www.stops.lt/vilnius/index.html#stop/2299,,
9756,,"Mileišiškės",,54.71172,25.34209,https://www.stops.lt/vilnius/index.html#stop/2298,,
9612,,"Mileišiškių sodai",,54.71312,25.34809,https://www.stops.lt/vilnius/index.html#stop/2399,,
9613,,"Mileišiškių sodai",,54.71297,25.34743,https://www.stops.lt/vilnius/index.html#stop/2400,,
9608,,"Anapilio st.",,54.70764,25.35853,https://www.stops.lt/vilnius/index.html#stop/2395,,
9609,,"Anapilio st.",,54.70771,25.35840,https://www.stops.lt/vilnius/index.html#stop/2396,,
9968,,"Sapieginės miškas",,54.71025,25.35687,https://www.stops.lt/vilnius/index.html#stop/1047,,
9969,,"Sapieginės miškas",,54.70983,25.35769,https://www.stops.lt/vilnius/index.html#stop/1048,,
9675,,"Viršupio sodai",,54.71267,25.35319,https://www.stops.lt/vilnius/index.html#stop/2397,,
9676,,"Viršupio sodai",,54.71332,25.35260,https://www.stops.lt/vilnius/index.html#stop/2398,,
11046,,"Vieversių st.",,54.71065,25.32032,https://www.stops.lt/vilnius/index.html#stop/1136,,
11047,,"Vieversių st.",,54.70983,25.32257,https://www.stops.lt/vilnius/index.html#stop/1137,,
7189,,"Agrastų st.",,54.62943,25.17703,https://www.stops.lt/vilnius/index.html#stop/5124,,
7187,,"Margirio st.",,54.61288,25.18688,https://www.stops.lt/vilnius/index.html#stop/5123,,
7188,,"Margirio st.",,54.61256,25.18706,https://www.stops.lt/vilnius/index.html#stop/5118,,
7910,,"Chemijos st.",,54.62689,25.14704,https://www.stops.lt/vilnius/index.html#stop/2810a,,
5747,,"Chemijos st.",,54.62628,25.15099,https://www.stops.lt/vilnius/index.html#stop/2811,,
5750,,"Prekybos st.",,54.62063,25.15741,https://www.stops.lt/vilnius/index.html#stop/2813,,
5751,,"Prekybos st.",,54.62128,25.15673,https://www.stops.lt/vilnius/index.html#stop/2812,,
7180,,"Kazbėjų žiedas",,54.61660,25.13801,https://www.stops.lt/vilnius/index.html#stop/2822,,
6449,,"Fermentų st.",,54.62471,25.14078,https://www.stops.lt/vilnius/index.html#stop/2801,,
6450,,"Fermentų st.",,54.62549,25.13989,https://www.stops.lt/vilnius/index.html#stop/2802,,
6455,,"Kazbėjų st.",,54.61584,25.14953,https://www.stops.lt/vilnius/index.html#stop/2807,,
6456,,"Kazbėjų st.",,54.61645,25.14909,https://www.stops.lt/vilnius/index.html#stop/2806,,
6457,,"Slėnis",,54.61215,25.15422,https://www.stops.lt/vilnius/index.html#stop/2808,,
6458,,"Slėnis",,54.61227,25.15440,https://www.stops.lt/vilnius/index.html#stop/2809,,
4531,,"Vytauto Andriaus Graičiūno st.",,54.60814,25.16000,https://www.stops.lt/vilnius/index.html#stop/2821,,
6454,,"Vokės st.",,54.61923,25.14521,https://www.stops.lt/vilnius/index.html#stop/2805,,
6469,,"Vokės st.",,54.61976,25.14492,https://www.stops.lt/vilnius/index.html#stop/2804,,
9311,,"Kadugių st.",,54.62743,25.17996,https://www.stops.lt/vilnius/index.html#stop/2949,,
9312,,"Kadugių st.",,54.62674,25.18154,https://www.stops.lt/vilnius/index.html#stop/2950,,
9308,,"Vasarotojų st.",,54.62322,25.19010,https://www.stops.lt/vilnius/index.html#stop/2947,,
9310,,"Vasarotojų st.",,54.62365,25.18902,https://www.stops.lt/vilnius/index.html#stop/2948,,
9200,,"Baltoji Vokė",,54.60365,25.19329,https://www.stops.lt/vilnius/index.html#stop/5111,,
9201,,"Baltoji Vokė",,54.60240,25.19557,https://www.stops.lt/vilnius/index.html#stop/5110,,
9726,,"Juodšilių st.",,54.61669,25.16242,https://www.stops.lt/vilnius/index.html#stop/2814,,
9727,,"Juodšilių st.",,54.61606,25.16298,https://www.stops.lt/vilnius/index.html#stop/2820,,
9115,,"Fermentų st.",,54.62654,25.13932,https://www.stops.lt/vilnius/index.html#stop/2802a,,
9298,,"Vilniaus Pergalė",,54.61410,25.15204,https://www.stops.lt/vilnius/index.html#stop/2823,,
10577,,"Vilniaus Pergalė",,54.61403,25.15191,https://www.stops.lt/vilnius/index.html#stop/2825,,
16749,,"Vytauto Andriaus Graičiūno st.",,54.60815,25.15942,https://www.stops.lt/vilnius/index.html#stop/2828,,
9303,,"Zuikių st.",,54.63242,25.19844,https://www.stops.lt/vilnius/index.html#stop/2946,,
7080,,"1-osios Bukiškės",,54.76356,25.20003,https://www.stops.lt/vilnius/index.html#stop/4902,,
7082,,"2-osios Bukiškės",,54.76309,25.19852,https://www.stops.lt/vilnius/index.html#stop/4901,,
9970,,"Bajorų miškas",,54.75633,25.24233,https://www.stops.lt/vilnius/index.html#stop/2154,,
9971,,"Bajorų miškas",,54.75626,25.24250,https://www.stops.lt/vilnius/index.html#stop/2155,,
9693,,"Mokslininkų st.",,54.75445,25.24977,https://www.stops.lt/vilnius/index.html#stop/2150,,
9694,,"Mokslininkų st.",,54.75454,25.24930,https://www.stops.lt/vilnius/index.html#stop/2149,,
9815,,"Riaubonių st.",,54.75526,25.23294,https://www.stops.lt/vilnius/index.html#stop/2152,,
15548,,"Bajorai",,54.75682,25.23783,https://www.stops.lt/vilnius/index.html#stop/2157,,
15550,,"Šaulio st.",,54.75759,25.22938,https://www.stops.lt/vilnius/index.html#stop/2153,,
15551,,"Šaulio st.",,54.75772,25.22900,https://www.stops.lt/vilnius/index.html#stop/2158,,
9496,,"Bajorai",,54.75673,25.23716,https://www.stops.lt/vilnius/index.html#stop/2148,,
9053,,"Ragės st.",,54.78495,25.35139,https://www.stops.lt/vilnius/index.html#stop/2261,,
9054,,"Ragės st.",,54.78468,25.35194,https://www.stops.lt/vilnius/index.html#stop/2262,,
16832,,"Žynių st.",,54.78168,25.35503,https://www.stops.lt/vilnius/index.html#stop/2270,,
16870,,"Žynių st.",,54.78308,25.35433,https://www.stops.lt/vilnius/index.html#stop/2271,,
9081,,"Balsių mokykla",,54.78058,25.35980,https://www.stops.lt/vilnius/index.html#stop/2259,,
9045,,"Austėjos st.",,54.77823,25.34554,https://www.stops.lt/vilnius/index.html#stop/2255,,
9046,,"Austėjos st.",,54.77817,25.34615,https://www.stops.lt/vilnius/index.html#stop/2256,,
15113,,"Laimos st.",,54.77810,25.35586,https://www.stops.lt/vilnius/index.html#stop/2268,,
15114,,"Laimos st.",,54.77804,25.35628,https://www.stops.lt/vilnius/index.html#stop/2269,,
9047,,"Žalčių st.",,54.77816,25.35174,https://www.stops.lt/vilnius/index.html#stop/2257,,
9048,,"Žalčių st.",,54.77804,25.35262,https://www.stops.lt/vilnius/index.html#stop/2258,,
10551,,"Krakiškių sodai",,54.80074,25.34014,https://www.stops.lt/vilnius/index.html#stop/2260,,
10552,,"Krakiškių sodai",,54.80091,25.34074,https://www.stops.lt/vilnius/index.html#stop/2264,,
8315,,"Balsiai",,54.78595,25.34779,https://www.stops.lt/vilnius/index.html#stop/2222,,
9798,,"Balsiai",,54.78604,25.34776,https://www.stops.lt/vilnius/index.html#stop/2263,,
5822,,"Ateities st.",,54.73682,25.26515,https://www.stops.lt/vilnius/index.html#stop/2101,,
5828,,"Ateities st.",,54.73707,25.26672,https://www.stops.lt/vilnius/index.html#stop/2002,,
6640,,"Kalvarijos",,54.73933,25.27535,https://www.stops.lt/vilnius/index.html#stop/2112,,
6633,,"Rugių st.",,54.73819,25.27044,https://www.stops.lt/vilnius/index.html#stop/5143,,
6634,,"Rugių st.",,54.73801,25.26928,https://www.stops.lt/vilnius/index.html#stop/5142,,
348,,"Ateities st.",,54.73600,25.26599,https://www.stops.lt/vilnius/index.html#stop/2017,,
5827,,"Ateities st.",,54.73630,25.26656,https://www.stops.lt/vilnius/index.html#stop/2019,,
6773,,"Ateities st.",,54.73750,25.26584,https://www.stops.lt/vilnius/index.html#stop/2102,,
6776,,"Mokyklos st.",,54.74535,25.26338,https://www.stops.lt/vilnius/index.html#stop/2103,,
6777,,"Mokyklos st.",,54.74629,25.26375,https://www.stops.lt/vilnius/index.html#stop/2104,,
5835,,"Baltupiai",,54.72758,25.27858,https://www.stops.lt/vilnius/index.html#stop/2010,,
5833,,"Didlaukio st.",,54.72903,25.26926,https://www.stops.lt/vilnius/index.html#stop/2008,,
5834,,"Didlaukio st.",,54.72915,25.27162,https://www.stops.lt/vilnius/index.html#stop/2009,,
6500,,"Jeruzalė",,54.74415,25.27788,https://www.stops.lt/vilnius/index.html#stop/2115,,
6501,,"Jeruzalė",,54.74295,25.27691,https://www.stops.lt/vilnius/index.html#stop/2114,,
6497,,"Kalvarijos",,54.73997,25.27677,https://www.stops.lt/vilnius/index.html#stop/2113,,
5836,,"Baltupiai",,54.72688,25.28001,https://www.stops.lt/vilnius/index.html#stop/2011,,
6487,,"Baltupiai",,54.72828,25.28013,https://www.stops.lt/vilnius/index.html#stop/2018,,
6494,,"Kalvarijos",,54.73854,25.27686,https://www.stops.lt/vilnius/index.html#stop/2003,,
5839,,"Naujakiemio st.",,54.72387,25.28144,https://www.stops.lt/vilnius/index.html#stop/2012,,
5840,,"Naujakiemio st.",,54.72467,25.28114,https://www.stops.lt/vilnius/index.html#stop/2013,,
6488,,"Pušynas",,54.73436,25.27891,https://www.stops.lt/vilnius/index.html#stop/2006,,
6489,,"Pušynas",,54.73328,25.27880,https://www.stops.lt/vilnius/index.html#stop/2007,,
6491,,"Seminarija",,54.73702,25.27791,https://www.stops.lt/vilnius/index.html#stop/2004,,
6492,,"Seminarija",,54.73576,25.27801,https://www.stops.lt/vilnius/index.html#stop/2005,,
6748,,"Buivydiškės",,54.71687,25.19645,https://www.stops.lt/vilnius/index.html#stop/4402,,
6749,,"Buivydiškės",,54.71735,25.19697,https://www.stops.lt/vilnius/index.html#stop/4403,,
6751,,"Sodų st.",,54.72409,25.18789,https://www.stops.lt/vilnius/index.html#stop/4404,,
6752,,"Sodų st.",,54.72427,25.18717,https://www.stops.lt/vilnius/index.html#stop/4405,,
6743,,"Tvenkinių st.",,54.71065,25.20082,https://www.stops.lt/vilnius/index.html#stop/3403,,
6746,,"Tvenkinių st.",,54.71104,25.20066,https://www.stops.lt/vilnius/index.html#stop/4401,,
10280,,"Sidaronių st.",,54.70881,25.20298,https://www.stops.lt/vilnius/index.html#stop/3404,,
10281,,"Sidaronių st.",,54.70795,25.20358,https://www.stops.lt/vilnius/index.html#stop/3405,,
16971,,"Vytauto Pociūno st.",,54.70395,25.20551,https://www.stops.lt/vilnius/index.html#stop/3406,,
16973,,"Vytauto Pociūno st.",,54.70496,25.20548,https://www.stops.lt/vilnius/index.html#stop/3407,,
15558,,"Mėtų st.",,54.75913,25.21941,https://www.stops.lt/vilnius/index.html#stop/4910,,
15561,,"Mėtų st.",,54.75930,25.21930,https://www.stops.lt/vilnius/index.html#stop/4911,,
15202,,"Liepų st.",,54.76238,25.20977,https://www.stops.lt/vilnius/index.html#stop/4905,,
15556,,"Aušros st.",,54.75959,25.20734,https://www.stops.lt/vilnius/index.html#stop/4907,,
5378,,"Kalvarijų turgus",,54.69931,25.28249,https://www.stops.lt/vilnius/index.html#stop/0703,,
6843,,"Kalvarijų turgus",,54.70019,25.28301,https://www.stops.lt/vilnius/index.html#stop/0704,,
5244,,"Žaliasis tiltas",,54.69234,25.28003,https://www.stops.lt/vilnius/index.html#stop/0102,,
5245,,"Žaliasis tiltas",,54.69236,25.28048,https://www.stops.lt/vilnius/index.html#stop/0101,,
753,,"Europos aikštė",,54.69564,25.27743,https://www.stops.lt/vilnius/index.html#stop/0104,,
5239,,"Europos aikštė",,54.69544,25.27698,https://www.stops.lt/vilnius/index.html#stop/0103,,
988,,"Lietuvos sąjūdžio kelias",,54.69853,25.26650,https://www.stops.lt/vilnius/index.html#stop/0106,,
6635,,"Lietuvos sąjūdžio kelias",,54.69825,25.26630,https://www.stops.lt/vilnius/index.html#stop/0105,,
7381,,"Nacionalinė dailės galerija",,54.69671,25.27311,https://www.stops.lt/vilnius/index.html#stop/0113,,
7382,,"Nacionalinė dailės galerija",,54.69793,25.27003,https://www.stops.lt/vilnius/index.html#stop/0114,,
7769,,"Šnipiškės",,54.69983,25.26892,https://www.stops.lt/vilnius/index.html#stop/0115,,
677,,"Lvivo st.",,54.69457,25.28387,https://www.stops.lt/vilnius/index.html#stop/0110,,
5667,,"Lvivo st.",,54.69448,25.28276,https://www.stops.lt/vilnius/index.html#stop/0109,,
3551,,"Alberto Goštauto st.",,54.69288,25.27088,https://www.stops.lt/vilnius/index.html#stop/0222,,
5539,,"Alberto Goštauto st.",,54.69456,25.26747,https://www.stops.lt/vilnius/index.html#stop/0221,,
5248,,"Operos ir baleto teatras",,54.69081,25.27732,https://www.stops.lt/vilnius/index.html#stop/0233,,
5249,,"Operos ir baleto teatras",,54.69123,25.27574,https://www.stops.lt/vilnius/index.html#stop/0232,,
474,,"Gedimino prospektas",,54.68909,25.26261,https://www.stops.lt/vilnius/index.html#stop/0219,,
5774,,"Gedimino prospektas",,54.68894,25.26208,https://www.stops.lt/vilnius/index.html#stop/0220,,
5459,,"Jogailos st.",,54.68526,25.27821,https://www.stops.lt/vilnius/index.html#stop/0207,,
5881,,"Jokūbo Jasinskio st.",,54.68812,25.26329,https://www.stops.lt/vilnius/index.html#stop/0218,,
5937,,"Jokūbo Jasinskio st.",,54.68828,25.26352,https://www.stops.lt/vilnius/index.html#stop/0217,,
5936,,"Pamėnkalnio st.",,54.68784,25.26659,https://www.stops.lt/vilnius/index.html#stop/0216,,
6736,,"Juozo Tumo-Vaižganto st.",,54.68958,25.26922,https://www.stops.lt/vilnius/index.html#stop/0226,,
5257,,"Kražių st.",,54.69179,25.27091,https://www.stops.lt/vilnius/index.html#stop/0224,,
5258,,"Kražių st.",,54.69172,25.27116,https://www.stops.lt/vilnius/index.html#stop/0225,,
6356,,"Lukiškės",,54.69090,25.27072,https://www.stops.lt/vilnius/index.html#stop/0231,,
7663,,"Lukiškės",,54.69037,25.27231,https://www.stops.lt/vilnius/index.html#stop/0236,,
5259,,"Vašingtono aikštė",,54.69160,25.26987,https://www.stops.lt/vilnius/index.html#stop/0223,,
5334,,"Islandijos st.",,54.68500,25.27641,https://www.stops.lt/vilnius/index.html#stop/0212,,
5332,,"Pamėnkalnio st.",,54.68736,25.26934,https://www.stops.lt/vilnius/index.html#stop/0215,,
5338,,"Centro poliklinika",,54.68371,25.27701,https://www.stops.lt/vilnius/index.html#stop/0235,,
7238,,"Arkikatedra",,54.68665,25.28644,https://www.stops.lt/vilnius/index.html#stop/0203,,
7245,,"Arkikatedra",,54.68667,25.28675,https://www.stops.lt/vilnius/index.html#stop/0405,,
5409,,"Vinco Kudirkos aikštė",,54.68871,25.27982,https://www.stops.lt/vilnius/index.html#stop/0211,,
5492,,"Vinco Kudirkos aikštė",,54.68753,25.27980,https://www.stops.lt/vilnius/index.html#stop/0210,,
5264,,"Juozo Tumo-Vaižganto st.",,54.68835,25.26799,https://www.stops.lt/vilnius/index.html#stop/0214,,
848,,"Karaliaus Mindaugo tiltas",,54.68858,25.28741,https://www.stops.lt/vilnius/index.html#stop/0201,,
6855,,"Karaliaus Mindaugo tiltas",,54.68867,25.28663,https://www.stops.lt/vilnius/index.html#stop/0202,,
10360,,"Gynėjų st.",,54.69349,25.26557,https://www.stops.lt/vilnius/index.html#stop/0227,,
16553,,"Nepriklausomybės aikštė",,54.69099,25.25993,https://www.stops.lt/vilnius/index.html#stop/0238,,
16772,,"Verslo trikampis",,54.68703,25.25946,https://www.stops.lt/vilnius/index.html#stop/0253,,
16773,,"Verslo trikampis",,54.68664,25.25903,https://www.stops.lt/vilnius/index.html#stop/0254,,
9004,,"Antano Tumėno st.",,54.69225,25.26124,https://www.stops.lt/vilnius/index.html#stop/0237,,
9007,,"Nepriklausomybės aikštė",,54.69118,25.26026,https://www.stops.lt/vilnius/index.html#stop/0239,,
3572,,"Daniliškės",,54.60105,25.13817,https://www.stops.lt/vilnius/index.html#stop/3104,,
16654,,"Degučių st.",,54.59214,25.15946,https://www.stops.lt/vilnius/index.html#stop/3116,,
16655,,"Degučių st.",,54.59250,25.15804,https://www.stops.lt/vilnius/index.html#stop/3117,,
16656,,"Jaunystės st.",,54.58863,25.16800,https://www.stops.lt/vilnius/index.html#stop/3118,,
16657,,"Jaunystės st.",,54.58795,25.16923,https://www.stops.lt/vilnius/index.html#stop/3119,,
16751,,"Medkirčių st.",,54.59454,25.15251,https://www.stops.lt/vilnius/index.html#stop/3121,,
16752,,"Medkirčių st.",,54.59427,25.15290,https://www.stops.lt/vilnius/index.html#stop/3122,,
16753,,"Vaidotų piliakalnis",,54.58300,25.17922,https://www.stops.lt/vilnius/index.html#stop/3124,,
16754,,"Vaidotų piliakalnis",,54.58346,25.17902,https://www.stops.lt/vilnius/index.html#stop/3123,,
16658,,"Daniliškės",,54.60088,25.13766,https://www.stops.lt/vilnius/index.html#stop/3120,,
6179,,"Lazerių st.",,54.72949,25.37465,https://www.stops.lt/vilnius/index.html#stop/1012,,
6180,,"Lazerių st.",,54.72956,25.37489,https://www.stops.lt/vilnius/index.html#stop/1013,,
456,,"Galgiai",,54.72031,25.41133,https://www.stops.lt/vilnius/index.html#stop/4602,,
6895,,"Gvazdikų st.",,54.74315,25.39835,https://www.stops.lt/vilnius/index.html#stop/3528,,
6896,,"Gvazdikų st.",,54.74366,25.39804,https://www.stops.lt/vilnius/index.html#stop/3527,,
6190,,"Lubinų st.",,54.72976,25.41224,https://www.stops.lt/vilnius/index.html#stop/1018,,
6191,,"Lubinų st.",,54.72872,25.41181,https://www.stops.lt/vilnius/index.html#stop/1024,,
6188,,"Paliuliškės",,54.73365,25.41033,https://www.stops.lt/vilnius/index.html#stop/1016,,
6189,,"Paliuliškės",,54.73289,25.41104,https://www.stops.lt/vilnius/index.html#stop/1017,,
6192,,"Purienų st.",,54.72488,25.41200,https://www.stops.lt/vilnius/index.html#stop/1025,,
6193,,"Purienų st.",,54.72487,25.41211,https://www.stops.lt/vilnius/index.html#stop/4601,,
429,,"Dvarčionys",,54.72972,25.37052,https://www.stops.lt/vilnius/index.html#stop/1011,,
6181,,"Dvarčionys",,54.72986,25.37033,https://www.stops.lt/vilnius/index.html#stop/1026,,
6173,,"Aukštagiris",,54.73049,25.35577,https://www.stops.lt/vilnius/index.html#stop/3523,,
6174,,"Aukštagiris",,54.73057,25.35661,https://www.stops.lt/vilnius/index.html#stop/1008,,
6183,,"Baniškės",,54.73453,25.38833,https://www.stops.lt/vilnius/index.html#stop/1014,,
6184,,"Baniškės",,54.73451,25.38710,https://www.stops.lt/vilnius/index.html#stop/3525,,
6176,,"Dvarčionių kryžkelė",,54.73347,25.37073,https://www.stops.lt/vilnius/index.html#stop/1009,,
6177,,"Dvarčionių kryžkelė",,54.73344,25.36972,https://www.stops.lt/vilnius/index.html#stop/3524,,
6170,,"Plytinės st.",,54.72791,25.34778,https://www.stops.lt/vilnius/index.html#stop/1007,,
6171,,"Plytinės st.",,54.72762,25.34671,https://www.stops.lt/vilnius/index.html#stop/1006,,
900,,"Senoji plytinė",,54.72416,25.34075,https://www.stops.lt/vilnius/index.html#stop/1005,,
6239,,"Senoji plytinė",,54.72403,25.33967,https://www.stops.lt/vilnius/index.html#stop/1004,,
6898,,"Žemoji Veržuva",,54.75002,25.40124,https://www.stops.lt/vilnius/index.html#stop/3529,,
6899,,"Žemoji Veržuva",,54.75002,25.40151,https://www.stops.lt/vilnius/index.html#stop/3530,,
8250,,"Lazerių st.",,54.72937,25.37476,https://www.stops.lt/vilnius/index.html#stop/1027,,
10545,,"Moliakalnio st.",,54.71583,25.35519,https://www.stops.lt/vilnius/index.html#stop/1040,,
10548,,"Moliakalnio st.",,54.71578,25.35526,https://www.stops.lt/vilnius/index.html#stop/1042,,
10609,,"Pylimėliai",,54.71888,25.35994,https://www.stops.lt/vilnius/index.html#stop/1043,,
10611,,"Pylimėliai",,54.71845,25.35947,https://www.stops.lt/vilnius/index.html#stop/1045,,
10537,,"Juodvarnių st.",,54.72255,25.37632,https://www.stops.lt/vilnius/index.html#stop/1032,,
10538,,"Juodvarnių st.",,54.72228,25.37637,https://www.stops.lt/vilnius/index.html#stop/1033,,
8376,,"Senoji plytinė",,54.72461,25.34055,https://www.stops.lt/vilnius/index.html#stop/1004a,,
10539,,"Stanislovo Kerbedžio st.",,54.72065,25.37415,https://www.stops.lt/vilnius/index.html#stop/1034,,
10541,,"Stanislovo Kerbedžio st.",,54.72063,25.37309,https://www.stops.lt/vilnius/index.html#stop/1036,,
10543,,"Stepono Kairio st.",,54.72085,25.37036,https://www.stops.lt/vilnius/index.html#stop/1038,,
10544,,"Stepono Kairio st.",,54.72081,25.36923,https://www.stops.lt/vilnius/index.html#stop/1039,,
9925,,"Vinciūniškės",,54.75910,25.39505,https://www.stops.lt/vilnius/index.html#stop/3561,,
5807,,"Antano Jonyno st.",,54.73137,25.24744,https://www.stops.lt/vilnius/index.html#stop/3817,,
5808,,"Antano Jonyno st.",,54.73156,25.24893,https://www.stops.lt/vilnius/index.html#stop/3818,,
5804,,"Kaimelio st.",,54.73066,25.24621,https://www.stops.lt/vilnius/index.html#stop/5159,,
5810,,"Liudo Giros st.",,54.73376,25.25421,https://www.stops.lt/vilnius/index.html#stop/3822,,
5812,,"Liudo Giros st.",,54.73329,25.25210,https://www.stops.lt/vilnius/index.html#stop/3819,,
5814,,"Mykolo Romerio universitetas",,54.73517,25.25795,https://www.stops.lt/vilnius/index.html#stop/3823,,
5815,,"Mykolo Romerio universitetas",,54.73531,25.25976,https://www.stops.lt/vilnius/index.html#stop/2001,,
5803,,"Kaimelio žiedas",,54.73160,25.24446,https://www.stops.lt/vilnius/index.html#stop/3813,,
5511,,"Fabijoniškių žiedas",,54.73933,25.24044,https://www.stops.lt/vilnius/index.html#stop/3809,,
5515,,"Gedvydžių st.",,54.73634,25.23730,https://www.stops.lt/vilnius/index.html#stop/3806,,
5516,,"Gedvydžių st.",,54.73702,25.23822,https://www.stops.lt/vilnius/index.html#stop/3807,,
1158,,"Fabijoniškių žiedas",,54.73906,25.24147,https://www.stops.lt/vilnius/index.html#stop/3810,,
5512,,"Fabijoniškių žiedas",,54.74009,25.24062,https://www.stops.lt/vilnius/index.html#stop/3811,,
5811,,"Liudo Giros st.",,54.73400,25.25311,https://www.stops.lt/vilnius/index.html#stop/3820,,
6913,,"Pijaus Žadeikos st.",,54.73504,25.24753,https://www.stops.lt/vilnius/index.html#stop/3816,,
6915,,"Pijaus Žadeikos st.",,54.73552,25.24623,https://www.stops.lt/vilnius/index.html#stop/3831,,
6914,,"Pijaus Žadeikos st.",,54.73490,25.24626,https://www.stops.lt/vilnius/index.html#stop/3815,,
6763,,"Sporto gimnazija",,54.73161,25.24241,https://www.stops.lt/vilnius/index.html#stop/3812,,
6911,,"Sporto gimnazija",,54.73299,25.24470,https://www.stops.lt/vilnius/index.html#stop/3814,,
7811,,"Liudviko Zamenhofo st.",,54.74106,25.22889,https://www.stops.lt/vilnius/index.html#stop/3835,,
7809,,"Salomėjos Nėries st.",,54.73729,25.23245,https://www.stops.lt/vilnius/index.html#stop/3833,,
7810,,"Salomėjos Nėries st.",,54.73817,25.23175,https://www.stops.lt/vilnius/index.html#stop/3834,,
5518,,"Takas",,54.73296,25.23689,https://www.stops.lt/vilnius/index.html#stop/3803,,
5519,,"Takas",,54.73416,25.23594,https://www.stops.lt/vilnius/index.html#stop/3804,,
6924,,"Jovaro st.",,54.72287,25.25407,https://www.stops.lt/vilnius/index.html#stop/3829,,
6926,,"Jovaro st.",,54.72384,25.25396,https://www.stops.lt/vilnius/index.html#stop/3828,,
5813,,"Liudo Giros st.",,54.73313,25.25369,https://www.stops.lt/vilnius/index.html#stop/3821,,
6917,,"Pamiškė",,54.72958,25.25452,https://www.stops.lt/vilnius/index.html#stop/3825,,
6918,,"Pamiškė",,54.73041,25.25490,https://www.stops.lt/vilnius/index.html#stop/3824,,
6921,,"Simono Stanevičiaus st.",,54.72520,25.25372,https://www.stops.lt/vilnius/index.html#stop/3827,,
6922,,"Simono Stanevičiaus st.",,54.72610,25.25418,https://www.stops.lt/vilnius/index.html#stop/3826,,
446,,"Fabijoniškės",,54.73145,25.23739,https://www.stops.lt/vilnius/index.html#stop/3802,,
481,,"Gedvydžių st.",,54.73463,25.23419,https://www.stops.lt/vilnius/index.html#stop/3805,,
5443,,"Gedvydžių st.",,54.73413,25.23420,https://www.stops.lt/vilnius/index.html#stop/3322,,
4388,,"Igno Šeiniaus st.",,54.72146,25.24426,https://www.stops.lt/vilnius/index.html#stop/3832,,
5451,,"Igno Šeiniaus st.",,54.72179,25.24353,https://www.stops.lt/vilnius/index.html#stop/3325,,
823,,"Stasio Lozoraičio st.",,54.72440,25.24251,https://www.stops.lt/vilnius/index.html#stop/3801,,
5450,,"Stasio Lozoraičio st.",,54.72401,25.24241,https://www.stops.lt/vilnius/index.html#stop/3323,,
8269,,"Kaimelio st.",,54.73059,25.24448,https://www.stops.lt/vilnius/index.html#stop/3839,,
8270,,"Kaimelio žiedas",,54.73155,25.24488,https://www.stops.lt/vilnius/index.html#stop/3840,,
9152,,"Perkūno st.",,54.73936,25.22774,https://www.stops.lt/vilnius/index.html#stop/3331,,
6198,,"Vakario st.",,54.71454,25.41260,https://www.stops.lt/vilnius/index.html#stop/4604,,
5728,,"Fizikos institutas",,54.64212,25.18254,https://www.stops.lt/vilnius/index.html#stop/2903,,
5742,,"Galvės st.",,54.63274,25.15080,https://www.stops.lt/vilnius/index.html#stop/2910,,
5731,,"Lentvario st.",,54.63874,25.17833,https://www.stops.lt/vilnius/index.html#stop/2904,,
5732,,"Lentvario st.",,54.63836,25.17726,https://www.stops.lt/vilnius/index.html#stop/2905,,
7055,,"Stasylų st.",,54.62871,25.13342,https://www.stops.lt/vilnius/index.html#stop/2941,,
7056,,"Stasylų st.",,54.62829,25.13073,https://www.stops.lt/vilnius/index.html#stop/2940,,
4410,,"Vilijos st.",,54.63595,25.17316,https://www.stops.lt/vilnius/index.html#stop/2937,,
5738,,"Vilijos st.",,54.63557,25.17174,https://www.stops.lt/vilnius/index.html#stop/2938,,
6297,,"Gariūnai",,54.65892,25.15913,https://www.stops.lt/vilnius/index.html#stop/2927,,
6609,,"Gariūnai",,54.65908,25.16073,https://www.stops.lt/vilnius/index.html#stop/2928,,
6309,,"Vandenvala",,54.66539,25.17311,https://www.stops.lt/vilnius/index.html#stop/2933,,
6310,,"Vandenvala",,54.66534,25.17380,https://www.stops.lt/vilnius/index.html#stop/2934,,
7730,,"Elektrinės st.",,54.66746,25.16205,https://www.stops.lt/vilnius/index.html#stop/2932,,
7731,,"Elektrinės st.",,54.66774,25.16234,https://www.stops.lt/vilnius/index.html#stop/2944,,
6296,,"Gariūnai",,54.65999,25.16061,https://www.stops.lt/vilnius/index.html#stop/2926,,
6300,,"Jočionys",,54.66413,25.16171,https://www.stops.lt/vilnius/index.html#stop/2930,,
6301,,"Jočionys",,54.66474,25.16189,https://www.stops.lt/vilnius/index.html#stop/2931,,
6294,,"Kauno plentas",,54.65524,25.15088,https://www.stops.lt/vilnius/index.html#stop/2925,,
6295,,"Kauno plentas",,54.65424,25.15088,https://www.stops.lt/vilnius/index.html#stop/2924,,
6290,,"Kulokiškės",,54.64564,25.14227,https://www.stops.lt/vilnius/index.html#stop/2922,,
6291,,"Kulokiškės",,54.64538,25.14395,https://www.stops.lt/vilnius/index.html#stop/2923,,
6282,,"Liudvinava",,54.64716,25.12816,https://www.stops.lt/vilnius/index.html#stop/2936,,
6283,,"Liudvinava",,54.64705,25.12837,https://www.stops.lt/vilnius/index.html#stop/2935,,
6286,,"Mūrinė Vokė",,54.64828,25.12176,https://www.stops.lt/vilnius/index.html#stop/3901,,
4455,,"Prekybos bazė",,54.65806,25.13807,https://www.stops.lt/vilnius/index.html#stop/2939,,
5564,,"Valkininkų st.",,54.64395,25.19972,https://www.stops.lt/vilnius/index.html#stop/2901,,
357,,"Aukštieji Paneriai",,54.63135,25.17403,https://www.stops.lt/vilnius/index.html#stop/2906,,
6278,,"Asfalto st.",,54.64480,25.13449,https://www.stops.lt/vilnius/index.html#stop/2920,,
6279,,"Asfalto st.",,54.64519,25.13463,https://www.stops.lt/vilnius/index.html#stop/2921,,
6276,,"Liudvinavo st.",,54.64015,25.13522,https://www.stops.lt/vilnius/index.html#stop/2919,,
6277,,"Liudvinavo st.",,54.64067,25.13522,https://www.stops.lt/vilnius/index.html#stop/2918,,
6273,,"Šešėlių st.",,54.63715,25.13563,https://www.stops.lt/vilnius/index.html#stop/2917,,
6274,,"Šešėlių st.",,54.63760,25.13566,https://www.stops.lt/vilnius/index.html#stop/2916,,
6270,,"Žarijų st.",,54.63239,25.14007,https://www.stops.lt/vilnius/index.html#stop/2914,,
6271,,"Žarijų st.",,54.63223,25.14053,https://www.stops.lt/vilnius/index.html#stop/2915,,
9776,,"Galvės st.",,54.63247,25.15096,https://www.stops.lt/vilnius/index.html#stop/2908,,
9626,,"Mūrinė Vokė",,54.64838,25.12157,https://www.stops.lt/vilnius/index.html#stop/3911,,
9627,,"Stasio Krasausko st.",,54.64433,25.09079,https://www.stops.lt/vilnius/index.html#stop/3912,,
9628,,"Stasio Krasausko st.",,54.64446,25.09120,https://www.stops.lt/vilnius/index.html#stop/3913,,
8784,,"Aukštieji Paneriai",,54.63126,25.17376,https://www.stops.lt/vilnius/index.html#stop/2945,,
4479,,"Naujosios Gineitiškės",,54.73597,25.20137,https://www.stops.lt/vilnius/index.html#stop/4407,,
7395,,"Naujosios Gineitiškės",,54.73583,25.20239,https://www.stops.lt/vilnius/index.html#stop/4411,,
6032,,"Grigaičiai",,54.68095,25.41305,https://www.stops.lt/vilnius/index.html#stop/5160,,
4965,,"Grigaičių žiedas",,54.66430,25.41555,https://www.stops.lt/vilnius/index.html#stop/5163,,
6029,,"Jaunimo st.",,54.66994,25.41217,https://www.stops.lt/vilnius/index.html#stop/5161,,
6030,,"Jaunimo st.",,54.66979,25.41227,https://www.stops.lt/vilnius/index.html#stop/5162,,
7356,,"Karklėnai",,54.67563,25.41434,https://www.stops.lt/vilnius/index.html#stop/5194,,
7357,,"Karklėnai",,54.67586,25.41456,https://www.stops.lt/vilnius/index.html#stop/5195,,
6603,,"Kunigiškių st.",,54.67057,25.09277,https://www.stops.lt/vilnius/index.html#stop/4102,,
4454,,"Salos",,54.66862,25.10393,https://www.stops.lt/vilnius/index.html#stop/4120,,
6604,,"Šviesos st.",,54.66959,25.09601,https://www.stops.lt/vilnius/index.html#stop/4119,,
15964,,"Kovo 11-osios st.",,54.67450,25.08827,https://www.stops.lt/vilnius/index.html#stop/4121,,
16267,,"Kauno Vokės st.",,54.68066,25.07473,https://www.stops.lt/vilnius/index.html#stop/4127,,
16268,,"Kauno Vokės st.",,54.68059,25.07504,https://www.stops.lt/vilnius/index.html#stop/4128,,
16263,,"Vokės sodai",,54.68346,25.07075,https://www.stops.lt/vilnius/index.html#stop/4124,,
16266,,"Vokės sodai",,54.68403,25.07035,https://www.stops.lt/vilnius/index.html#stop/4126,,
8945,,"Kunigiškių st.",,54.67045,25.09297,https://www.stops.lt/vilnius/index.html#stop/4107,,
9834,,"Salos",,54.66833,25.10068,https://www.stops.lt/vilnius/index.html#stop/4104,,
8944,,"Šviesos st.",,54.66945,25.09672,https://www.stops.lt/vilnius/index.html#stop/4103,,
9614,,"Grigiškių žiedas",,54.67362,25.08231,https://www.stops.lt/vilnius/index.html#stop/4114,,
9484,,"Kranto st.",,54.67349,25.08072,https://www.stops.lt/vilnius/index.html#stop/4112,,
9615,,"Kranto st.",,54.67329,25.08022,https://www.stops.lt/vilnius/index.html#stop/4115,,
9485,,"Žalioji st.",,54.66999,25.07720,https://www.stops.lt/vilnius/index.html#stop/4113,,
9616,,"Žalioji st.",,54.66959,25.07668,https://www.stops.lt/vilnius/index.html#stop/4116,,
9082,,"Grigiškių poliklinika",,54.67194,25.08946,https://www.stops.lt/vilnius/index.html#stop/4105,,
16236,,"Grigiškių poliklinika",,54.67278,25.09004,https://www.stops.lt/vilnius/index.html#stop/4123,,
9109,,"Neravų st.",,54.66864,25.11174,https://www.stops.lt/vilnius/index.html#stop/4106,,
15833,,"Jono Švažo st.",,54.64064,25.10896,https://www.stops.lt/vilnius/index.html#stop/3917,,
15837,,"Kaimynų st.",,54.63664,25.11077,https://www.stops.lt/vilnius/index.html#stop/3920,,
15829,,"Gureliai",,54.64672,25.11176,https://www.stops.lt/vilnius/index.html#stop/3914,,
15831,,"Gureliai",,54.64653,25.11180,https://www.stops.lt/vilnius/index.html#stop/3915,,
15835,,"Jono Švažo st.",,54.64019,25.10786,https://www.stops.lt/vilnius/index.html#stop/3918,,
9471,,"1-ieji Juodšiliai",,54.58541,25.24924,https://www.stops.lt/vilnius/index.html#stop/2723,,
9472,,"1-ieji Juodšiliai",,54.58528,25.24828,https://www.stops.lt/vilnius/index.html#stop/2724,,
9571,,"2-ieji Juodšiliai",,54.58516,25.26040,https://www.stops.lt/vilnius/index.html#stop/2728,,
9572,,"2-ieji Juodšiliai",,54.58501,25.26216,https://www.stops.lt/vilnius/index.html#stop/2729,,
5063,,"Justiniškės",,54.71754,25.22209,https://www.stops.lt/vilnius/index.html#stop/3209,,
6580,,"Justiniškės",,54.71652,25.22085,https://www.stops.lt/vilnius/index.html#stop/3211,,
6581,,"Lūžiai",,54.71080,25.21661,https://www.stops.lt/vilnius/index.html#stop/3214,,
6582,,"Lūžiai",,54.71164,25.21772,https://www.stops.lt/vilnius/index.html#stop/1804,,
542,,"Pumpėnų st.",,54.72239,25.22192,https://www.stops.lt/vilnius/index.html#stop/3201,,
5060,,"Taikos st.",,54.72060,25.22263,https://www.stops.lt/vilnius/index.html#stop/3204,,
5140,,"Taikos st.",,54.72159,25.22279,https://www.stops.lt/vilnius/index.html#stop/3202,,
7001,,"Justiniškės",,54.71676,25.22203,https://www.stops.lt/vilnius/index.html#stop/1801,,
5137,,"Rygos st.",,54.71647,25.22962,https://www.stops.lt/vilnius/index.html#stop/3218,,
6995,,"Atžalyno st.",,54.71826,25.21413,https://www.stops.lt/vilnius/index.html#stop/3208,,
6996,,"Atžalyno st.",,54.71929,25.21426,https://www.stops.lt/vilnius/index.html#stop/3207,,
6990,,"Justiniškių žiedas",,54.70933,25.21334,https://www.stops.lt/vilnius/index.html#stop/3216,,
6998,,"Mykolo Biržiškos gimnazija",,54.72133,25.21843,https://www.stops.lt/vilnius/index.html#stop/3206,,
6999,,"Mykolo Biržiškos gimnazija",,54.72153,25.21716,https://www.stops.lt/vilnius/index.html#stop/3205,,
6992,,"Šiaurinė st.",,54.71497,25.21486,https://www.stops.lt/vilnius/index.html#stop/3213,,
6993,,"Šiaurinė st.",,54.71554,25.21511,https://www.stops.lt/vilnius/index.html#stop/3212,,
7005,,"Taikos st.",,54.72126,25.22162,https://www.stops.lt/vilnius/index.html#stop/3203,,
16713,,"Airių st.",,54.65149,25.34953,https://www.stops.lt/vilnius/index.html#stop/4019,,
16715,,"Airių st.",,54.65204,25.34980,https://www.stops.lt/vilnius/index.html#stop/4024,,
16724,,"Savičiūnų st.",,54.65472,25.35366,https://www.stops.lt/vilnius/index.html#stop/4025,,
16725,,"Savičiūnų st.",,54.65450,25.35330,https://www.stops.lt/vilnius/index.html#stop/4026,,
9593,,"Kalnėnai",,54.65460,25.33164,https://www.stops.lt/vilnius/index.html#stop/4016,,
9659,,"Kalnėnai",,54.65453,25.33125,https://www.stops.lt/vilnius/index.html#stop/4020,,
10614,,"Tautų st.",,54.65117,25.32442,https://www.stops.lt/vilnius/index.html#stop/4021,,
16920,,"Tautų st.",,54.65056,25.32347,https://www.stops.lt/vilnius/index.html#stop/4022,,
9599,,"Juodupio st.",,54.65318,25.34127,https://www.stops.lt/vilnius/index.html#stop/4017,,
9600,,"Juodupio st.",,54.65322,25.34072,https://www.stops.lt/vilnius/index.html#stop/4018,,
5651,,"Karoliniškės",,54.69244,25.21631,https://www.stops.lt/vilnius/index.html#stop/1707,,
6649,,"Karoliniškės",,54.69279,25.21733,https://www.stops.lt/vilnius/index.html#stop/1706,,
5646,,"Laisvės prospektas",,54.69635,25.21992,https://www.stops.lt/vilnius/index.html#stop/1703,,
6643,,"Laisvės prospektas",,54.69752,25.22123,https://www.stops.lt/vilnius/index.html#stop/1702,,
1004,,"Televizijos bokštas",,54.69092,25.21486,https://www.stops.lt/vilnius/index.html#stop/1708,,
5656,,"Televizijos bokštas",,54.68996,25.21260,https://www.stops.lt/vilnius/index.html#stop/1709,,
1071,,"Vaivorykštės st.",,54.68519,25.20766,https://www.stops.lt/vilnius/index.html#stop/1714,,
5668,,"Vaivorykštės st.",,54.68430,25.20695,https://www.stops.lt/vilnius/index.html#stop/1715,,
351,,"Atminties st.",,54.68715,25.20713,https://www.stops.lt/vilnius/index.html#stop/1712,,
5920,,"Atminties st.",,54.68674,25.20650,https://www.stops.lt/vilnius/index.html#stop/1713,,
596,,"Karoliniškių poliklinika",,54.69344,25.21524,https://www.stops.lt/vilnius/index.html#stop/1705,,
5915,,"Karoliniškių poliklinika",,54.69283,25.21416,https://www.stops.lt/vilnius/index.html#stop/1704,,
5923,,"Pasakų parkas",,54.68477,25.20559,https://www.stops.lt/vilnius/index.html#stop/1717,,
5924,,"Pasakų parkas",,54.68461,25.20607,https://www.stops.lt/vilnius/index.html#stop/1716,,
5919,,"Ugniagesių st.",,54.68951,25.20904,https://www.stops.lt/vilnius/index.html#stop/1711,,
6400,,"Ugniagesių st.",,54.69021,25.21068,https://www.stops.lt/vilnius/index.html#stop/1710,,
10130,,"Loretos Asanavičiūtės st.",,54.68318,25.19942,https://www.stops.lt/vilnius/index.html#stop/1661,,
10131,,"Loretos Asanavičiūtės st.",,54.68332,25.19908,https://www.stops.lt/vilnius/index.html#stop/1662,,
5971,,"Kineliai",,54.59737,25.31626,https://www.stops.lt/vilnius/index.html#stop/4326,,
5972,,"Kineliai",,54.59760,25.31564,https://www.stops.lt/vilnius/index.html#stop/4325,,
410,,"Dariaus ir Girėno st.",,54.64755,25.27318,https://www.stops.lt/vilnius/index.html#stop/2608,,
5182,,"Dariaus ir Girėno st.",,54.64719,25.27313,https://www.stops.lt/vilnius/index.html#stop/2607,,
5180,,"Eišiškių plentas",,54.65129,25.27177,https://www.stops.lt/vilnius/index.html#stop/2603,,
5181,,"Eišiškių plentas",,54.65148,25.27186,https://www.stops.lt/vilnius/index.html#stop/2604,,
5184,,"Felikso Vaitkaus st.",,54.64352,25.27401,https://www.stops.lt/vilnius/index.html#stop/2612,,
588,,"Kirtimai",,54.63684,25.27461,https://www.stops.lt/vilnius/index.html#stop/2618,,
5193,,"Kirtimai",,54.63748,25.27466,https://www.stops.lt/vilnius/index.html#stop/2619,,
690,,"Kirtimų geležinkelio stotis",,54.62953,25.27220,https://www.stops.lt/vilnius/index.html#stop/2622,,
493,,"Tiekimo st.",,54.63206,25.27312,https://www.stops.lt/vilnius/index.html#stop/2620,,
5194,,"Tiekimo st.",,54.63323,25.27323,https://www.stops.lt/vilnius/index.html#stop/2621,,
6961,,"Dilgynė",,54.63435,25.25372,https://www.stops.lt/vilnius/index.html#stop/2628,,
5304,,"Eišiškių plentas",,54.64925,25.26784,https://www.stops.lt/vilnius/index.html#stop/2601,,
5305,,"Eišiškių plentas",,54.64970,25.26853,https://www.stops.lt/vilnius/index.html#stop/2602,,
6947,,"Hidrogeologijos st.",,54.64344,25.26321,https://www.stops.lt/vilnius/index.html#stop/2614,,
6948,,"Hidrogeologijos st.",,54.64295,25.26267,https://www.stops.lt/vilnius/index.html#stop/2615,,
5307,,"Metalo st.",,54.64632,25.26573,https://www.stops.lt/vilnius/index.html#stop/2606,,
6949,,"Verslo st.",,54.63898,25.25882,https://www.stops.lt/vilnius/index.html#stop/2625,,
6950,,"Verslo st.",,54.63933,25.25934,https://www.stops.lt/vilnius/index.html#stop/2624,,
5320,,"Verslo st.",,54.63701,25.25814,https://www.stops.lt/vilnius/index.html#stop/2626,,
5316,,"Meistrų st.",,54.63085,25.25945,https://www.stops.lt/vilnius/index.html#stop/2639,,
491,,"Geologų st.",,54.63986,25.26679,https://www.stops.lt/vilnius/index.html#stop/2616,,
5313,,"Geologų st.",,54.63868,25.26684,https://www.stops.lt/vilnius/index.html#stop/2617,,
5315,,"Katilinė",,54.63486,25.26604,https://www.stops.lt/vilnius/index.html#stop/2623,,
5310,,"Metalo st.",,54.64556,25.26567,https://www.stops.lt/vilnius/index.html#stop/2609,,
5317,,"Pameistrių st.",,54.63078,25.26474,https://www.stops.lt/vilnius/index.html#stop/2640,,
5319,,"Elektros st.",,54.63399,25.25666,https://www.stops.lt/vilnius/index.html#stop/2627,,
4290,,"Paštas",,54.63581,25.27655,https://www.stops.lt/vilnius/index.html#stop/2641,,
7817,,"Rodūnios kelias",,54.64185,25.27771,https://www.stops.lt/vilnius/index.html#stop/2644,,
7820,,"Rodūnios kelias",,54.64168,25.27789,https://www.stops.lt/vilnius/index.html#stop/2645,,
8240,,"Felikso Vaitkaus st.",,54.64478,25.27357,https://www.stops.lt/vilnius/index.html#stop/2611,,
8347,,"Dilgynė",,54.63490,25.25412,https://www.stops.lt/vilnius/index.html#stop/2630,,
8339,,"Metalo st.",,54.64581,25.26501,https://www.stops.lt/vilnius/index.html#stop/2605,,
9729,,"Meistrų st.",,54.63073,25.25939,https://www.stops.lt/vilnius/index.html#stop/2651,,
9730,,"Katilinė",,54.63488,25.26621,https://www.stops.lt/vilnius/index.html#stop/2652,,
9731,,"Pameistrių st.",,54.63079,25.26495,https://www.stops.lt/vilnius/index.html#stop/2653,,
9728,,"Elektros st.",,54.63374,25.25639,https://www.stops.lt/vilnius/index.html#stop/2650,,
15589,,"Oro uostas",,54.64331,25.27948,https://www.stops.lt/vilnius/index.html#stop/2613,,
9276,,"Paštas",,54.63595,25.27704,https://www.stops.lt/vilnius/index.html#stop/2649,,
9226,,"Rodūnios sodų st.",,54.63249,25.27778,https://www.stops.lt/vilnius/index.html#stop/2648,,
7874,,"Kuprioniškės",,54.64104,25.33163,https://www.stops.lt/vilnius/index.html#stop/5178,,
616,,"Kinologijos centras",,54.64878,25.32131,https://www.stops.lt/vilnius/index.html#stop/4002,,
9682,,"Vyturių st.",,54.63744,25.32758,https://www.stops.lt/vilnius/index.html#stop/4355,,
329,,"Akacijų st.",,54.67818,25.20273,https://www.stops.lt/vilnius/index.html#stop/1612,,
5672,,"Akacijų st.",,54.67792,25.20181,https://www.stops.lt/vilnius/index.html#stop/1613,,
5693,,"Architektų st.",,54.67343,25.21451,https://www.stops.lt/vilnius/index.html#stop/1619,,
5694,,"Architektų st.",,54.67313,25.21339,https://www.stops.lt/vilnius/index.html#stop/1643,,
5701,,"Ąžuolo st.",,54.67994,25.21765,https://www.stops.lt/vilnius/index.html#stop/1606,,
5702,,"Ąžuolo st.",,54.67934,25.21701,https://www.stops.lt/vilnius/index.html#stop/1605,,
7350,,"Erfurto st.",,54.67448,25.20080,https://www.stops.lt/vilnius/index.html#stop/5193,,
4395,,"Paukščių takas",,54.67980,25.20734,https://www.stops.lt/vilnius/index.html#stop/1646,,
5697,,"Riešutų st.",,54.67653,25.21611,https://www.stops.lt/vilnius/index.html#stop/1620,,
5698,,"Riešutų st.",,54.67600,25.21556,https://www.stops.lt/vilnius/index.html#stop/1645,,
5703,,"Ryto st.",,54.68215,25.21371,https://www.stops.lt/vilnius/index.html#stop/1607,,
5704,,"Ryto st.",,54.68268,25.21309,https://www.stops.lt/vilnius/index.html#stop/1608,,
5691,,"Šalnos st.",,54.67281,25.20703,https://www.stops.lt/vilnius/index.html#stop/1618,,
5692,,"Šalnos st.",,54.67307,25.20607,https://www.stops.lt/vilnius/index.html#stop/1642,,
639,,"Bukčiai",,54.65501,25.19563,https://www.stops.lt/vilnius/index.html#stop/1634,,
6390,,"Neužmirštuolių st.",,54.65845,25.20379,https://www.stops.lt/vilnius/index.html#stop/1633,,
6391,,"Neužmirštuolių st.",,54.65818,25.20248,https://www.stops.lt/vilnius/index.html#stop/1632,,
6388,,"Ratilių st.",,54.66456,25.21403,https://www.stops.lt/vilnius/index.html#stop/1648,,
6389,,"Ratilių st.",,54.66525,25.21435,https://www.stops.lt/vilnius/index.html#stop/1647,,
7722,,"Užutekio st.",,54.65918,25.20776,https://www.stops.lt/vilnius/index.html#stop/1649,,
7723,,"Užutekio st.",,54.65907,25.20740,https://www.stops.lt/vilnius/index.html#stop/1650,,
437,,"Erfurto st.",,54.67363,25.20114,https://www.stops.lt/vilnius/index.html#stop/1617,,
7341,,"Erfurto st.",,54.67357,25.20062,https://www.stops.lt/vilnius/index.html#stop/5189,,
6317,,"Lazdynai",,54.67761,25.21259,https://www.stops.lt/vilnius/index.html#stop/1640,,
6318,,"Lazdynai",,54.67778,25.21233,https://www.stops.lt/vilnius/index.html#stop/1611,,
783,,"Lazdynų seniūnija",,54.67520,25.20412,https://www.stops.lt/vilnius/index.html#stop/1615,,
6320,,"Lazdynų seniūnija",,54.67473,25.20258,https://www.stops.lt/vilnius/index.html#stop/1616,,
756,,"Oslo st.",,54.67016,25.19759,https://www.stops.lt/vilnius/index.html#stop/1622,,
3589,,"Žėručio st.",,54.67661,25.20840,https://www.stops.lt/vilnius/index.html#stop/1641,,
6319,,"Žėručio st.",,54.67642,25.20696,https://www.stops.lt/vilnius/index.html#stop/1614,,
6337,,"Eigulių st.",,54.66900,25.23547,https://www.stops.lt/vilnius/index.html#stop/2401,,
6338,,"Eigulių st.",,54.66935,25.23571,https://www.stops.lt/vilnius/index.html#stop/0608,,
6461,,"Lazdynai",,54.67891,25.21331,https://www.stops.lt/vilnius/index.html#stop/1609,,
6648,,"Lazdynai",,54.67926,25.21329,https://www.stops.lt/vilnius/index.html#stop/1610,,
790,,"LITEXPO",,54.67561,25.22250,https://www.stops.lt/vilnius/index.html#stop/1603,,
6333,,"LITEXPO",,54.67577,25.22186,https://www.stops.lt/vilnius/index.html#stop/1604,,
720,,"Miškiniai",,54.67119,25.22725,https://www.stops.lt/vilnius/index.html#stop/1601,,
721,,"Miškiniai",,54.67093,25.22641,https://www.stops.lt/vilnius/index.html#stop/1602,,
6460,,"Paukščių takas",,54.68065,25.20884,https://www.stops.lt/vilnius/index.html#stop/1636,,
6462,,"Paukščių takas",,54.68085,25.20922,https://www.stops.lt/vilnius/index.html#stop/1635,,
7560,,"Oslo st.",,54.66953,25.19796,https://www.stops.lt/vilnius/index.html#stop/1623,,
3560,,"Žaros st.",,54.66649,25.19576,https://www.stops.lt/vilnius/index.html#stop/1638,,
7171,,"Žaros st.",,54.66672,25.19581,https://www.stops.lt/vilnius/index.html#stop/1637,,
6350,,"Lazdynų ligoninė",,54.67031,25.20903,https://www.stops.lt/vilnius/index.html#stop/1626,,
6351,,"Lazdynų ligoninė",,54.67050,25.20809,https://www.stops.lt/vilnius/index.html#stop/1624,,
6352,,"Šiltnamių st.",,54.67091,25.21492,https://www.stops.lt/vilnius/index.html#stop/1629,,
6353,,"Šiltnamių st.",,54.67106,25.21418,https://www.stops.lt/vilnius/index.html#stop/1628,,
6379,,"Jonažolių st.",,54.66985,25.20846,https://www.stops.lt/vilnius/index.html#stop/1627,,
6381,,"Jonažolių st.",,54.66997,25.20740,https://www.stops.lt/vilnius/index.html#stop/1625,,
4945,,"Lazdynų ligoninė",,54.66907,25.20662,https://www.stops.lt/vilnius/index.html#stop/5158,,
6401,,"Oslo st.",,54.67007,25.19877,https://www.stops.lt/vilnius/index.html#stop/1653,,
6387,,"Pakalnučių st.",,54.66911,25.21298,https://www.stops.lt/vilnius/index.html#stop/1630,,
16703,,"Paukščių takas",,54.67972,25.20699,https://www.stops.lt/vilnius/index.html#stop/1667,,
8328,,"Bijūnų st.",,54.66729,25.21606,https://www.stops.lt/vilnius/index.html#stop/1651,,
9635,,"Gudeliai",,54.67585,25.19278,https://www.stops.lt/vilnius/index.html#stop/1655,,
9636,,"Gudeliai",,54.67558,25.19308,https://www.stops.lt/vilnius/index.html#stop/1656,,
15599,,"Lazdynėliai",,54.66348,25.19268,https://www.stops.lt/vilnius/index.html#stop/1639,,
16622,,"Lazdynėliai",,54.66261,25.19196,https://www.stops.lt/vilnius/index.html#stop/1652,,
9466,,"Monikos Mironaitės st.",,54.68081,25.18967,https://www.stops.lt/vilnius/index.html#stop/1654,,
9961,,"Monikos Mironaitės st.",,54.68083,25.18950,https://www.stops.lt/vilnius/index.html#stop/1657,,
9966,,"Bijūnų st.",,54.66748,25.21675,https://www.stops.lt/vilnius/index.html#stop/1660,,
11049,,"Lazdynų ligoninė",,54.66900,25.20914,https://www.stops.lt/vilnius/index.html#stop/1665,,
9965,,"Šiltnamių žiedas",,54.66708,25.22145,https://www.stops.lt/vilnius/index.html#stop/1659,,
10264,,"Ungurių st.",,54.65354,25.20851,https://www.stops.lt/vilnius/index.html#stop/1663,,
16903,,"Lentvaris",,54.64554,25.04896,https://www.stops.lt/vilnius/index.html#stop/3006,,
9685,,"Kilimų fabrikas",,54.65364,25.04649,https://www.stops.lt/vilnius/index.html#stop/3000,,
9690,,"Kilimų fabrikas",,54.65519,25.04569,https://www.stops.lt/vilnius/index.html#stop/3004,,
16879,,"Mačiuliškių st.",,54.64386,25.07848,https://www.stops.lt/vilnius/index.html#stop/3921,,
16880,,"Mačiuliškių st.",,54.64365,25.08055,https://www.stops.lt/vilnius/index.html#stop/3922,,
9692,,"1-asis Lentvaris",,54.64427,25.06487,https://www.stops.lt/vilnius/index.html#stop/3907,,
9618,,"Lentvaris",,54.64505,25.05501,https://www.stops.lt/vilnius/index.html#stop/3003,,
17320,,"Lentvaris",,54.64513,25.05360,https://www.stops.lt/vilnius/index.html#stop/3007,,
9686,,"Naujasis Lentvaris",,54.65800,25.05965,https://www.stops.lt/vilnius/index.html#stop/3001,,
9688,,"Naujasis Lentvaris",,54.65801,25.05934,https://www.stops.lt/vilnius/index.html#stop/3002,,
9689,,"Vandenų st.",,54.65804,25.04874,https://www.stops.lt/vilnius/index.html#stop/3005,,
5966,,"Basiukai",,54.61206,25.31046,https://www.stops.lt/vilnius/index.html#stop/4011,,
5967,,"Basiukai",,54.61052,25.31098,https://www.stops.lt/vilnius/index.html#stop/4012,,
5969,,"Katiliškės",,54.60612,25.31308,https://www.stops.lt/vilnius/index.html#stop/4013,,
5968,,"Katiliškės",,54.60436,25.31299,https://www.stops.lt/vilnius/index.html#stop/4014a,,
5955,,"Kelininkų st.",,54.64917,25.30266,https://www.stops.lt/vilnius/index.html#stop/2633,,
5996,,"Kelininkų st.",,54.65048,25.30308,https://www.stops.lt/vilnius/index.html#stop/4003,,
646,,"Lydos st.",,54.62535,25.30561,https://www.stops.lt/vilnius/index.html#stop/4015,,
5960,,"Lydos st.",,54.62522,25.30547,https://www.stops.lt/vilnius/index.html#stop/2636,,
5958,,"Miško parkas",,54.63671,25.30307,https://www.stops.lt/vilnius/index.html#stop/2635,,
5995,,"Miško parkas",,54.63609,25.30331,https://www.stops.lt/vilnius/index.html#stop/4005,,
5956,,"Šalčininkų kryptis",,54.64398,25.30273,https://www.stops.lt/vilnius/index.html#stop/2634,,
5957,,"Šalčininkų kryptis",,54.64484,25.30285,https://www.stops.lt/vilnius/index.html#stop/4004,,
5964,,"Svirno st.",,54.61725,25.30824,https://www.stops.lt/vilnius/index.html#stop/4010,,
5965,,"Svirno st.",,54.61865,25.30796,https://www.stops.lt/vilnius/index.html#stop/4009,,
5953,,"Žirnių st.",,54.65307,25.30270,https://www.stops.lt/vilnius/index.html#stop/2632,,
17222,,"Katiliškės",,54.60587,25.31291,https://www.stops.lt/vilnius/index.html#stop/4014,,
16977,,"Žirnių st.",,54.65394,25.30397,https://www.stops.lt/vilnius/index.html#stop/4001,,
16978,,"Žirnių st.",,54.65470,25.30181,https://www.stops.lt/vilnius/index.html#stop/1513,,
9568,,"Miškinių sodai",,54.58885,25.23720,https://www.stops.lt/vilnius/index.html#stop/2726,,
9570,,"Miškinių sodai",,54.58993,25.23454,https://www.stops.lt/vilnius/index.html#stop/2727,,
939,,"Stotis",,54.67110,25.28443,https://www.stops.lt/vilnius/index.html#stop/0530b,,
3590,,"Stotis",,54.67106,25.28399,https://www.stops.lt/vilnius/index.html#stop/0530d,,
3617,,"Stotis",,54.67085,25.28336,https://www.stops.lt/vilnius/index.html#stop/0530h,,
4266,,"Stotis",,54.67108,25.28420,https://www.stops.lt/vilnius/index.html#stop/0530c,,
5156,,"Stotis",,54.67025,25.28349,https://www.stops.lt/vilnius/index.html#stop/0530k,,
5300,,"Stotis",,54.67071,25.28490,https://www.stops.lt/vilnius/index.html#stop/0530a,,
7914,,"Stotis",,54.67077,25.28326,https://www.stops.lt/vilnius/index.html#stop/0530i,,
5524,,"Algirdo st.",,54.68197,25.26820,https://www.stops.lt/vilnius/index.html#stop/0501,,
6840,,"Algirdo st.",,54.68145,25.26640,https://www.stops.lt/vilnius/index.html#stop/0502,,
5166,,"„Sparta“",,54.67191,25.27022,https://www.stops.lt/vilnius/index.html#stop/0521,,
5167,,"„Sparta“",,54.67180,25.26847,https://www.stops.lt/vilnius/index.html#stop/0519,,
5160,,"Aguonų st.",,54.67263,25.27852,https://www.stops.lt/vilnius/index.html#stop/0415,,
6650,,"Aguonų st.",,54.67284,25.27736,https://www.stops.lt/vilnius/index.html#stop/0414,,
6362,,"Naujamiestis",,54.67043,25.26121,https://www.stops.lt/vilnius/index.html#stop/0517,,
6363,,"Naujamiestis",,54.67049,25.26260,https://www.stops.lt/vilnius/index.html#stop/0518,,
5655,,"Naugarduko st.",,54.67042,25.25985,https://www.stops.lt/vilnius/index.html#stop/0516,,
5645,,"Švitrigailos st.",,54.67424,25.26792,https://www.stops.lt/vilnius/index.html#stop/0512,,
5649,,"Vytenio st.",,54.67185,25.26233,https://www.stops.lt/vilnius/index.html#stop/0514,,
6852,,"Vytenio st.",,54.67342,25.26607,https://www.stops.lt/vilnius/index.html#stop/0513,,
5549,,"„Lelija“",,54.66815,25.26369,https://www.stops.lt/vilnius/index.html#stop/0523,,
5552,,"Smolensko st.",,54.66742,25.26005,https://www.stops.lt/vilnius/index.html#stop/0525,,
5553,,"Smolensko st.",,54.66714,25.25911,https://www.stops.lt/vilnius/index.html#stop/0526,,
5579,,"Simono Konarskio st.",,54.67986,25.25964,https://www.stops.lt/vilnius/index.html#stop/0507,,
5580,,"Simono Konarskio st.",,54.67947,25.25932,https://www.stops.lt/vilnius/index.html#stop/0506,,
6343,,"Vingis",,54.67719,25.25438,https://www.stops.lt/vilnius/index.html#stop/0509,,
6842,,"Vingis",,54.67754,25.25555,https://www.stops.lt/vilnius/index.html#stop/0508,,
3616,,"Stotis",,54.67115,25.28328,https://www.stops.lt/vilnius/index.html#stop/0530f,,
4267,,"Stotis",,54.67147,25.28327,https://www.stops.lt/vilnius/index.html#stop/0530e,,
7573,,"Stotis",,54.67140,25.28300,https://www.stops.lt/vilnius/index.html#stop/0546,,
5168,,"„Sparta“",,54.67262,25.26932,https://www.stops.lt/vilnius/index.html#stop/0520,,
7851,,"„Sparta“",,54.67111,25.26955,https://www.stops.lt/vilnius/index.html#stop/0522a,,
5266,,"Mikalojaus Konstantino Čiurlionio st.",,54.68082,25.26548,https://www.stops.lt/vilnius/index.html#stop/0504,,
5272,,"Taraso Ševčenkos st.",,54.67694,25.26749,https://www.stops.lt/vilnius/index.html#stop/0511,,
6853,,"Taraso Ševčenkos st.",,54.67869,25.26718,https://www.stops.lt/vilnius/index.html#stop/0510,,
683,,"Mikalojaus Konstantino Čiurlionio st.",,54.68160,25.26471,https://www.stops.lt/vilnius/index.html#stop/0505,,
5267,,"Mikalojaus Konstantino Čiurlionio st.",,54.68203,25.26526,https://www.stops.lt/vilnius/index.html#stop/0503,,
640,,"„Lelija“",,54.66967,25.26711,https://www.stops.lt/vilnius/index.html#stop/0531,,
6365,,"Statybininkų st.",,54.67274,25.25565,https://www.stops.lt/vilnius/index.html#stop/0515,,
8262,,"Stotis",,54.67066,25.28313,https://www.stops.lt/vilnius/index.html#stop/0530j,,
8264,,"Stotis",,54.67115,25.28513,https://www.stops.lt/vilnius/index.html#stop/0530p,,
8309,,"Burbiškės",,54.66671,25.25310,https://www.stops.lt/vilnius/index.html#stop/0527,,
9642,,"Skroblų st.",,54.66815,25.25570,https://www.stops.lt/vilnius/index.html#stop/0536,,
9701,,"Skroblų st.",,54.66983,25.25833,https://www.stops.lt/vilnius/index.html#stop/0535,,
16581,,"Stotis",,54.67191,25.28338,https://www.stops.lt/vilnius/index.html#stop/0547,,
5175,,"Naujininkai",,54.66084,25.27320,https://www.stops.lt/vilnius/index.html#stop/1501,,
5200,,"Naujininkai",,54.66275,25.27418,https://www.stops.lt/vilnius/index.html#stop/1502,,
7414,,"Naujininkai",,54.66237,25.27409,https://www.stops.lt/vilnius/index.html#stop/1517,,
5173,,"Prūsų st.",,54.66522,25.27281,https://www.stops.lt/vilnius/index.html#stop/1503,,
6854,,"Prūsų st.",,54.66505,25.27316,https://www.stops.lt/vilnius/index.html#stop/1504,,
6012,,"Dzūkų st.",,54.66528,25.27651,https://www.stops.lt/vilnius/index.html#stop/1505,,
6013,,"Dzūkų st.",,54.66582,25.27595,https://www.stops.lt/vilnius/index.html#stop/1506,,
6017,,"Merkinės st.",,54.66417,25.28719,https://www.stops.lt/vilnius/index.html#stop/1510,,
6018,,"Merkinės st.",,54.66421,25.28622,https://www.stops.lt/vilnius/index.html#stop/1511,,
6014,,"Rudaminos st.",,54.66428,25.28024,https://www.stops.lt/vilnius/index.html#stop/1507,,
6015,,"Rudaminos st.",,54.66463,25.27975,https://www.stops.lt/vilnius/index.html#stop/1508,,
6024,,"Karaimų kapinės",,54.65511,25.29743,https://www.stops.lt/vilnius/index.html#stop/2631,,
9738,,"Vikingų st.",,54.65123,25.28203,https://www.stops.lt/vilnius/index.html#stop/1520,,
9750,,"Vikingų st.",,54.65183,25.28255,https://www.stops.lt/vilnius/index.html#stop/1521,,
17003,,"Liepynės kapinės",,54.65412,25.29115,https://www.stops.lt/vilnius/index.html#stop/2654,,
5417,,"Alberto Kojelavičiaus st.",,54.69516,25.39570,https://www.stops.lt/vilnius/index.html#stop/2322,,
7586,,"Alberto Kojelavičiaus st.",,54.69511,25.39530,https://www.stops.lt/vilnius/index.html#stop/2376,,
6065,,"Bičių st.",,54.69735,25.42837,https://www.stops.lt/vilnius/index.html#stop/2367,,
6066,,"Bičių st.",,54.69768,25.42966,https://www.stops.lt/vilnius/index.html#stop/2366,,
6059,,"Gandrų st.",,54.69516,25.41467,https://www.stops.lt/vilnius/index.html#stop/2361,,
6060,,"Gandrų st.",,54.69521,25.41434,https://www.stops.lt/vilnius/index.html#stop/2360,,
5383,,"Girininkija",,54.69439,25.36363,https://www.stops.lt/vilnius/index.html#stop/2308,,
5384,,"Girininkija",,54.69459,25.36486,https://www.stops.lt/vilnius/index.html#stop/2309,,
6056,,"Ievų st.",,54.69433,25.40838,https://www.stops.lt/vilnius/index.html#stop/2344,,
6057,,"Ievų st.",,54.69430,25.40698,https://www.stops.lt/vilnius/index.html#stop/2343,,
6054,,"Jankos Kupalos st.",,54.69432,25.40168,https://www.stops.lt/vilnius/index.html#stop/2338,,
6055,,"Jankos Kupalos st.",,54.69445,25.40140,https://www.stops.lt/vilnius/index.html#stop/2337,,
5385,,"Kučkuriškės",,54.69551,25.36901,https://www.stops.lt/vilnius/index.html#stop/2311,,
5387,,"Kučkuriškės",,54.69581,25.36955,https://www.stops.lt/vilnius/index.html#stop/2310,,
6062,,"Rugiagėlių st.",,54.69626,25.42181,https://www.stops.lt/vilnius/index.html#stop/2365,,
6064,,"Rugiagėlių st.",,54.69608,25.42021,https://www.stops.lt/vilnius/index.html#stop/2364,,
5390,,"Širšių st.",,54.69566,25.38774,https://www.stops.lt/vilnius/index.html#stop/2320,,
5391,,"Širšių st.",,54.69561,25.38930,https://www.stops.lt/vilnius/index.html#stop/2321,,
5388,,"Užtvankos st.",,54.69670,25.38105,https://www.stops.lt/vilnius/index.html#stop/2318,,
5389,,"Užtvankos st.",,54.69650,25.38113,https://www.stops.lt/vilnius/index.html#stop/2319,,
5382,,"Viadukas",,54.69397,25.34920,https://www.stops.lt/vilnius/index.html#stop/2306,,
342,,"Arimų st.",,54.70248,25.43145,https://www.stops.lt/vilnius/index.html#stop/2375,,
6068,,"Užkiemio st.",,54.69889,25.43281,https://www.stops.lt/vilnius/index.html#stop/2373,,
6069,,"Užkiemio st.",,54.69908,25.43283,https://www.stops.lt/vilnius/index.html#stop/2374,,
5396,,"Dūmų st.",,54.69318,25.40137,https://www.stops.lt/vilnius/index.html#stop/2340,,
5415,,"Dūmų st.",,54.69318,25.40036,https://www.stops.lt/vilnius/index.html#stop/2339,,
6034,,"Grigaičiai",,54.68156,25.41215,https://www.stops.lt/vilnius/index.html#stop/2350,,
6195,,"Galgiai",,54.71935,25.41150,https://www.stops.lt/vilnius/index.html#stop/4603,,
548,,"Kalno st.",,54.70476,25.39286,https://www.stops.lt/vilnius/index.html#stop/2330,,
6221,,"Kalno st.",,54.70491,25.39314,https://www.stops.lt/vilnius/index.html#stop/2377,,
6051,,"Linksmoji st.",,54.69518,25.43604,https://www.stops.lt/vilnius/index.html#stop/2371,,
6052,,"Linksmoji st.",,54.69508,25.43593,https://www.stops.lt/vilnius/index.html#stop/2370,,
6047,,"Naujosios Vilnios žiedas",,54.68593,25.42996,https://www.stops.lt/vilnius/index.html#stop/2357,,
6048,,"Rytų st.",,54.69044,25.43374,https://www.stops.lt/vilnius/index.html#stop/2359,,
6049,,"Rytų st.",,54.68956,25.43274,https://www.stops.lt/vilnius/index.html#stop/2358,,
7588,,"Mildos st.",,54.69302,25.34210,https://www.stops.lt/vilnius/index.html#stop/2301,,
6040,,"Genių st.",,54.68798,25.41324,https://www.stops.lt/vilnius/index.html#stop/2349,,
6041,,"Genių st.",,54.68827,25.41255,https://www.stops.lt/vilnius/index.html#stop/2348,,
6073,,"Naujosios Vilnios žiedas",,54.68558,25.42811,https://www.stops.lt/vilnius/index.html#stop/2356,,
7444,,"Naujosios Vilnios žiedas",,54.68543,25.42889,https://www.stops.lt/vilnius/index.html#stop/2378,,
6044,,"Parko st.",,54.68550,25.42610,https://www.stops.lt/vilnius/index.html#stop/2355,,
6045,,"Parko st.",,54.68561,25.42449,https://www.stops.lt/vilnius/index.html#stop/2354,,
6042,,"Respublikinė psichiatrijos ligoninė",,54.68563,25.41933,https://www.stops.lt/vilnius/index.html#stop/2353,,
6043,,"Respublikinė psichiatrijos ligoninė",,54.68594,25.41868,https://www.stops.lt/vilnius/index.html#stop/2352,,
6035,,"Grigaičiai",,54.68198,25.41263,https://www.stops.lt/vilnius/index.html#stop/2351,,
6225,,"Tremtinių st.",,54.69260,25.41063,https://www.stops.lt/vilnius/index.html#stop/2346,,
1129,,"Naujoji Vilnia",,54.69523,25.44039,https://www.stops.lt/vilnius/index.html#stop/2372,,
5406,,"Neries st.",,54.69563,25.42869,https://www.stops.lt/vilnius/index.html#stop/2369,,
5408,,"Neries st.",,54.69572,25.42939,https://www.stops.lt/vilnius/index.html#stop/2368,,
7653,,"Polocko kryptis",,54.69237,25.46002,https://www.stops.lt/vilnius/index.html#stop/2380regio,,
7654,,"Polocko kryptis",,54.69259,25.45939,https://www.stops.lt/vilnius/index.html#stop/2381regio,,
5403,,"Pramonės st.",,54.69435,25.41807,https://www.stops.lt/vilnius/index.html#stop/2363,,
5411,,"Pramonės st.",,54.69448,25.41865,https://www.stops.lt/vilnius/index.html#stop/2362,,
5399,,"Tremtinių st.",,54.69310,25.41141,https://www.stops.lt/vilnius/index.html#stop/2347,,
7655,,"Viktariškės",,54.69346,25.48062,https://www.stops.lt/vilnius/index.html#stop/2382regio,,
7656,,"Viktariškės",,54.69299,25.47763,https://www.stops.lt/vilnius/index.html#stop/2383regio,,
6888,,"Rokantiškės",,54.70411,25.36406,https://www.stops.lt/vilnius/index.html#stop/1019,,
5394,,"Alberto Kojelavičiaus st.",,54.69465,25.39674,https://www.stops.lt/vilnius/index.html#stop/2323,,
6230,,"Alberto Kojelavičiaus st.",,54.69631,25.39844,https://www.stops.lt/vilnius/index.html#stop/2324,,
6211,,"Palydovo st.",,54.70100,25.40844,https://www.stops.lt/vilnius/index.html#stop/2331,,
6212,,"Palydovo st.",,54.70112,25.40998,https://www.stops.lt/vilnius/index.html#stop/2332,,
6207,,"Pupojų st.",,54.70272,25.41411,https://www.stops.lt/vilnius/index.html#stop/2334,,
6208,,"Pupojų st.",,54.70183,25.41310,https://www.stops.lt/vilnius/index.html#stop/2333,,
6203,,"Šiaurės st.",,54.70929,25.41681,https://www.stops.lt/vilnius/index.html#stop/2336,,
6204,,"Šiaurės st.",,54.70863,25.41716,https://www.stops.lt/vilnius/index.html#stop/2335,,
6215,,"Uosių st.",,54.69939,25.40195,https://www.stops.lt/vilnius/index.html#stop/2326,,
6217,,"Uosių st.",,54.69903,25.40122,https://www.stops.lt/vilnius/index.html#stop/2325,,
6199,,"Vakario st.",,54.71359,25.41240,https://www.stops.lt/vilnius/index.html#stop/1020,,
6727,,"Lelijų st.",,54.68949,25.40021,https://www.stops.lt/vilnius/index.html#stop/2342,,
6729,,"Lelijų st.",,54.68973,25.40104,https://www.stops.lt/vilnius/index.html#stop/2341,,
7587,,"Mildos st.",,54.69147,25.34376,https://www.stops.lt/vilnius/index.html#stop/2302,,
6721,,"Pūčkoriai",,54.69112,25.36730,https://www.stops.lt/vilnius/index.html#stop/2315,,
6722,,"Pūčkoriai",,54.69145,25.36641,https://www.stops.lt/vilnius/index.html#stop/2314,,
6719,,"Pūčkorių atodanga",,54.69159,25.36010,https://www.stops.lt/vilnius/index.html#stop/2313,,
6732,,"Pūčkorių atodanga",,54.69193,25.35951,https://www.stops.lt/vilnius/index.html#stop/2312,,
6724,,"Stepono Batoro st.",,54.69312,25.37896,https://www.stops.lt/vilnius/index.html#stop/2317,,
6725,,"Stepono Batoro st.",,54.69317,25.37802,https://www.stops.lt/vilnius/index.html#stop/2316,,
5400,,"Tremtinių st.",,54.69290,25.40981,https://www.stops.lt/vilnius/index.html#stop/2345,,
5381,,"Viadukas",,54.69301,25.34898,https://www.stops.lt/vilnius/index.html#stop/2307,,
6218,,"Paparčių st.",,54.70163,25.39411,https://www.stops.lt/vilnius/index.html#stop/2328,,
6219,,"Paparčių st.",,54.70157,25.39462,https://www.stops.lt/vilnius/index.html#stop/2329,,
6216,,"Uosių st.",,54.69943,25.40141,https://www.stops.lt/vilnius/index.html#stop/2327,,
6887,,"Lyglaukiai",,54.70237,25.35381,https://www.stops.lt/vilnius/index.html#stop/2305,,
6883,,"Šilo st.",,54.70009,25.34933,https://www.stops.lt/vilnius/index.html#stop/2304,,
6881,,"Viršupis",,54.69615,25.34496,https://www.stops.lt/vilnius/index.html#stop/2303,,
10317,,"Klonio st.",,54.70586,25.37112,https://www.stops.lt/vilnius/index.html#stop/1030,,
10319,,"Klonio st.",,54.70582,25.37100,https://www.stops.lt/vilnius/index.html#stop/1031,,
16158,,"Gerovės st.",,54.69073,25.41208,https://www.stops.lt/vilnius/index.html#stop/4606,,
16167,,"Gerovės st.",,54.69065,25.41253,https://www.stops.lt/vilnius/index.html#stop/4615,,
16160,,"Karklėnų st.",,54.69042,25.42695,https://www.stops.lt/vilnius/index.html#stop/4608,,
16162,,"Karklėnų st.",,54.69036,25.42668,https://www.stops.lt/vilnius/index.html#stop/4610,,
16156,,"Rytų st.",,54.69016,25.43180,https://www.stops.lt/vilnius/index.html#stop/4605,,
16164,,"Žvirblių st.",,54.69070,25.41891,https://www.stops.lt/vilnius/index.html#stop/4612,,
16165,,"Žvirblių st.",,54.69059,25.41844,https://www.stops.lt/vilnius/index.html#stop/4613,,
17007,,"Gerviškių st.",,54.68200,25.42762,https://www.stops.lt/vilnius/index.html#stop/2429,,
17009,,"Gerviškių st.",,54.68233,25.42822,https://www.stops.lt/vilnius/index.html#stop/2431,,
16453,,"Meškonių st.",,54.67988,25.41951,https://www.stops.lt/vilnius/index.html#stop/2426,,
16454,,"Meškonių st.",,54.68002,25.42011,https://www.stops.lt/vilnius/index.html#stop/2427,,
8373,,"Naujoji Vilnia",,54.69526,25.43904,https://www.stops.lt/vilnius/index.html#stop/2379,,
8342,,"Verbų st.",,54.69446,25.44467,https://www.stops.lt/vilnius/index.html#stop/2387regio,,
8343,,"Verbų st.",,54.69455,25.44464,https://www.stops.lt/vilnius/index.html#stop/2388regio,,
10612,,"Duburio st.",,54.70728,25.39168,https://www.stops.lt/vilnius/index.html#stop/1046,,
14663,,"Duburio st.",,54.70731,25.39033,https://www.stops.lt/vilnius/index.html#stop/1049,,
9606,,"Rokantiškių sodai",,54.70590,25.37578,https://www.stops.lt/vilnius/index.html#stop/2393,,
9604,,"Uosių sodai",,54.70754,25.38691,https://www.stops.lt/vilnius/index.html#stop/2391,,
9605,,"Uosių sodai",,54.70770,25.38548,https://www.stops.lt/vilnius/index.html#stop/2392,,
9607,,"Rokantiškių sodai",,54.70606,25.37675,https://www.stops.lt/vilnius/index.html#stop/2394,,
6133,,"Sodžiaus st.",,54.61364,25.38872,https://www.stops.lt/vilnius/index.html#stop/4310,,
6134,,"Sodžiaus st.",,54.61390,25.38901,https://www.stops.lt/vilnius/index.html#stop/4309,,
6130,,"Stankutiškės",,54.62039,25.38993,https://www.stops.lt/vilnius/index.html#stop/4307,,
6131,,"Stankutiškės",,54.62085,25.39024,https://www.stops.lt/vilnius/index.html#stop/4308,,
6126,,"Daržininkai",,54.63720,25.36844,https://www.stops.lt/vilnius/index.html#stop/4304,,
6127,,"Daržininkai",,54.63803,25.36670,https://www.stops.lt/vilnius/index.html#stop/4327,,
6120,,"Minsko plentas",,54.64434,25.33872,https://www.stops.lt/vilnius/index.html#stop/4301,,
6124,,"Nemėžis",,54.63997,25.35694,https://www.stops.lt/vilnius/index.html#stop/4303,,
6125,,"Nemėžis",,54.64047,25.35628,https://www.stops.lt/vilnius/index.html#stop/1420,,
6128,,"Posūkis",,54.62644,25.39308,https://www.stops.lt/vilnius/index.html#stop/4306,,
6129,,"Posūkis",,54.62727,25.39227,https://www.stops.lt/vilnius/index.html#stop/4329,,
6122,,"Sodai",,54.64243,25.34666,https://www.stops.lt/vilnius/index.html#stop/4302,,
10532,,"Ramunių st.",,54.63259,25.33531,https://www.stops.lt/vilnius/index.html#stop/4359,,
9680,,"Baltarusių st.",,54.63364,25.34363,https://www.stops.lt/vilnius/index.html#stop/4351,,
9681,,"Sodybų st.",,54.63182,25.32668,https://www.stops.lt/vilnius/index.html#stop/4353,,
9790,,"Šveicarų st.",,54.63509,25.32657,https://www.stops.lt/vilnius/index.html#stop/4358,,
9677,,"Nemėžis",,54.63900,25.35580,https://www.stops.lt/vilnius/index.html#stop/4350,,
9678,,"Vladislavo Sirokomlės st.",,54.63453,25.35393,https://www.stops.lt/vilnius/index.html#stop/4352,,
6978,,"Durpių st.",,54.59582,25.20494,https://www.stops.lt/vilnius/index.html#stop/5139,,
6979,,"Durpių st.",,54.59657,25.20456,https://www.stops.lt/vilnius/index.html#stop/5138,,
4565,,"Pagiriai",,54.57716,25.19829,https://www.stops.lt/vilnius/index.html#stop/5114,,
4612,,"Pirmieji Pagiriai",,54.58635,25.21041,https://www.stops.lt/vilnius/index.html#stop/5133,,
4613,,"Pirmieji Pagiriai",,54.58711,25.21116,https://www.stops.lt/vilnius/index.html#stop/5134,,
4563,,"Žemieji Pagiriai",,54.58150,25.20442,https://www.stops.lt/vilnius/index.html#stop/5112,,
4564,,"Žemieji Pagiriai",,54.58272,25.20609,https://www.stops.lt/vilnius/index.html#stop/5113,,
9468,,"Vokės parkas",,54.59416,25.21924,https://www.stops.lt/vilnius/index.html#stop/2721,,
9567,,"Vokės parkas",,54.59525,25.21919,https://www.stops.lt/vilnius/index.html#stop/2725,,
9479,,"Juliaus Janonio st.",,54.64765,25.11084,https://www.stops.lt/vilnius/index.html#stop/3902,,
9683,,"Juliaus Janonio st.",,54.64778,25.10911,https://www.stops.lt/vilnius/index.html#stop/3903,,
9967,,"Vilijos st.",,54.63484,25.17254,https://www.stops.lt/vilnius/index.html#stop/2951,,
7022,,"Gabijos st.",,54.73135,25.22435,https://www.stops.lt/vilnius/index.html#stop/3307,,
7023,,"Gabijos st.",,54.73140,25.22632,https://www.stops.lt/vilnius/index.html#stop/3308,,
687,,"Medeinos st.",,54.72871,25.21815,https://www.stops.lt/vilnius/index.html#stop/3303,,
6925,,"Medeinos st.",,54.72967,25.21902,https://www.stops.lt/vilnius/index.html#stop/3304,,
6931,,"Skalvių st.",,54.73471,25.22005,https://www.stops.lt/vilnius/index.html#stop/3306,,
7603,,"Skalvių st.",,54.73455,25.21963,https://www.stops.lt/vilnius/index.html#stop/3305,,
949,,"Sūduvių st.",,54.72563,25.21922,https://www.stops.lt/vilnius/index.html#stop/3301,,
5141,,"Sūduvių st.",,54.72646,25.21906,https://www.stops.lt/vilnius/index.html#stop/3302,,
364,,"Juliaus Juzeliūno st.",,54.73041,25.23684,https://www.stops.lt/vilnius/index.html#stop/3320,,
6766,,"Juliaus Juzeliūno st.",,54.72918,25.23568,https://www.stops.lt/vilnius/index.html#stop/3319,,
6484,,"Pašilaičių žiedas",,54.72773,25.23387,https://www.stops.lt/vilnius/index.html#stop/3324,,
6481,,"Vilniaus rajono poliklinika",,54.72332,25.23400,https://www.stops.lt/vilnius/index.html#stop/3313,,
6482,,"Vilniaus rajono poliklinika",,54.72281,25.23343,https://www.stops.lt/vilnius/index.html#stop/3314,,
6523,,"Žemynos st.",,54.72576,25.23344,https://www.stops.lt/vilnius/index.html#stop/3316,,
6653,,"Žemynos st.",,54.72665,25.23398,https://www.stops.lt/vilnius/index.html#stop/3315,,
7898,,"Juliaus Juzeliūno st.",,54.73054,25.23504,https://www.stops.lt/vilnius/index.html#stop/3328,,
7027,,"Pašilaičiai",,54.73141,25.23164,https://www.stops.lt/vilnius/index.html#stop/3312,,
7028,,"Pašilaičiai",,54.73195,25.23050,https://www.stops.lt/vilnius/index.html#stop/3311,,
795,,"Deivių st.",,54.73562,25.22905,https://www.stops.lt/vilnius/index.html#stop/3310,,
7896,,"Jurgio Baltrušaičio st.",,54.72934,25.23892,https://www.stops.lt/vilnius/index.html#stop/3326,,
7897,,"Jurgio Baltrušaičio st.",,54.72903,25.23961,https://www.stops.lt/vilnius/index.html#stop/3327,,
8268,,"Jurgio Baltrušaičio st.",,54.72944,25.23738,https://www.stops.lt/vilnius/index.html#stop/3329,,
8275,,"Pašilaičių žiedas",,54.72842,25.23430,https://www.stops.lt/vilnius/index.html#stop/3335,,
9766,,"Pavilnionių st.",,54.73575,25.21449,https://www.stops.lt/vilnius/index.html#stop/3336,,
9768,,"Pavilnionių st.",,54.73569,25.21497,https://www.stops.lt/vilnius/index.html#stop/3337,,
17333,,"Pavilnionių st.",,54.73576,25.21127,https://www.stops.lt/vilnius/index.html#stop/3338,,
9153,,"Perkūno st.",,54.73936,25.22720,https://www.stops.lt/vilnius/index.html#stop/3332,,
449,,"Filaretų st.",,54.68532,25.30853,https://www.stops.lt/vilnius/index.html#stop/1210,,
6571,,"Filaretų st.",,54.68473,25.30917,https://www.stops.lt/vilnius/index.html#stop/0437,,
603,,"Krivių st.",,54.68802,25.30531,https://www.stops.lt/vilnius/index.html#stop/1101,,
6568,,"Krivių st.",,54.68730,25.30562,https://www.stops.lt/vilnius/index.html#stop/0438,,
6572,,"Polocko st.",,54.68331,25.31286,https://www.stops.lt/vilnius/index.html#stop/1209,,
6565,,"Vasaros st.",,54.69130,25.30471,https://www.stops.lt/vilnius/index.html#stop/0439,,
6566,,"Vasaros st.",,54.69122,25.30503,https://www.stops.lt/vilnius/index.html#stop/1102,,
684,,"Markučiai",,54.67430,25.32268,https://www.stops.lt/vilnius/index.html#stop/1218,,
387,,"Belmontas",,54.68403,25.32038,https://www.stops.lt/vilnius/index.html#stop/1217,,
5425,,"Belmontas",,54.68379,25.31940,https://www.stops.lt/vilnius/index.html#stop/1211,,
5421,,"Mildos st.",,54.69162,25.34337,https://www.stops.lt/vilnius/index.html#stop/1216,,
5372,,"Rudens st.",,54.68640,25.32505,https://www.stops.lt/vilnius/index.html#stop/1213,,
5424,,"Rudens st.",,54.68599,25.32358,https://www.stops.lt/vilnius/index.html#stop/1212,,
5373,,"Šaudykla",,54.68902,25.33243,https://www.stops.lt/vilnius/index.html#stop/1215,,
5423,,"Šaudykla",,54.68899,25.33066,https://www.stops.lt/vilnius/index.html#stop/1214,,
931,,"Srovės st.",,54.68188,25.31555,https://www.stops.lt/vilnius/index.html#stop/1208,,
5857,,"Vilnelės st.",,54.67465,25.31948,https://www.stops.lt/vilnius/index.html#stop/1204,,
5858,,"Vilnelės st.",,54.67490,25.31879,https://www.stops.lt/vilnius/index.html#stop/1205,,
356,,"Drujos st.",,54.67878,25.31164,https://www.stops.lt/vilnius/index.html#stop/1207,,
5925,,"Drujos st.",,54.67839,25.31053,https://www.stops.lt/vilnius/index.html#stop/0424,,
1123,,"Zarasų st.",,54.67669,25.31012,https://www.stops.lt/vilnius/index.html#stop/1203,,
8336,,"Markučiai",,54.67437,25.32209,https://www.stops.lt/vilnius/index.html#stop/1206,,
6705,,"Alėja",,54.67718,25.38428,https://www.stops.lt/vilnius/index.html#stop/1414,,
6706,,"Alėja",,54.67721,25.38291,https://www.stops.lt/vilnius/index.html#stop/1413,,
6703,,"Gamtininkų st.",,54.67501,25.36844,https://www.stops.lt/vilnius/index.html#stop/1412,,
6704,,"Gamtininkų st.",,54.67492,25.36752,https://www.stops.lt/vilnius/index.html#stop/1411,,
6695,,"Grūdų st.",,54.66794,25.35941,https://www.stops.lt/vilnius/index.html#stop/1407,,
6696,,"Grūdų st.",,54.66867,25.35996,https://www.stops.lt/vilnius/index.html#stop/1408,,
6699,,"Pavilnys",,54.67120,25.36119,https://www.stops.lt/vilnius/index.html#stop/1409,,
6700,,"Pavilnys",,54.67171,25.36178,https://www.stops.lt/vilnius/index.html#stop/1410,,
6707,,"Strelčiukai",,54.67783,25.39869,https://www.stops.lt/vilnius/index.html#stop/1416,,
6708,,"Strelčiukai",,54.67790,25.39691,https://www.stops.lt/vilnius/index.html#stop/1415,,
6693,,"Garsioji st.",,54.66689,25.35356,https://www.stops.lt/vilnius/index.html#stop/1405,,
6694,,"Garsioji st.",,54.66692,25.35541,https://www.stops.lt/vilnius/index.html#stop/1406,,
7716,,"Šumsko kryptis",,54.65889,25.36440,https://www.stops.lt/vilnius/index.html#stop/1427,,
7818,,"Ašmenėlės st.",,54.66035,25.35536,https://www.stops.lt/vilnius/index.html#stop/1428,,
7819,,"Ašmenėlės st.",,54.66028,25.35559,https://www.stops.lt/vilnius/index.html#stop/1429,,
6688,,"Guriai",,54.66285,25.34007,https://www.stops.lt/vilnius/index.html#stop/1401,,
7710,,"Guriai",,54.66245,25.34243,https://www.stops.lt/vilnius/index.html#stop/1422,,
7714,,"Gurių sodai",,54.65986,25.35971,https://www.stops.lt/vilnius/index.html#stop/1425,,
7715,,"Gurių sodai",,54.65997,25.35911,https://www.stops.lt/vilnius/index.html#stop/1426,,
7711,,"Pranciškaus Baltraus Šivickio st.",,54.66124,25.34986,https://www.stops.lt/vilnius/index.html#stop/1423,,
7712,,"Pranciškaus Baltraus Šivickio st.",,54.66132,25.34958,https://www.stops.lt/vilnius/index.html#stop/1424,,
617,,"Kinologijos centras",,54.64925,25.32053,https://www.stops.lt/vilnius/index.html#stop/1417,,
6121,,"Minsko plentas",,54.64501,25.33736,https://www.stops.lt/vilnius/index.html#stop/1418,,
6123,,"Sodai",,54.64299,25.34566,https://www.stops.lt/vilnius/index.html#stop/1419,,
6687,,"Guriai",,54.66331,25.34187,https://www.stops.lt/vilnius/index.html#stop/1402,,
6690,,"Pavilnio sodai",,54.66494,25.34565,https://www.stops.lt/vilnius/index.html#stop/1403,,
6691,,"Pavilnio sodai",,54.66501,25.34655,https://www.stops.lt/vilnius/index.html#stop/1404,,
7364,,"Žemasis Pavilnys",,54.67924,25.35934,https://www.stops.lt/vilnius/index.html#stop/1421,,
9660,,"Pavilnio regioninis parkas",,54.66007,25.33748,https://www.stops.lt/vilnius/index.html#stop/1436,,
9661,,"Pavilnio regioninis parkas",,54.65995,25.33723,https://www.stops.lt/vilnius/index.html#stop/1437,,
16230,,"Šumsko kryptis",,54.65934,25.36306,https://www.stops.lt/vilnius/index.html#stop/1439,,
16231,,"Šumsko kryptis",,54.65884,25.36494,https://www.stops.lt/vilnius/index.html#stop/1440,,
8344,,"Tuputiškės",,54.67649,25.34376,https://www.stops.lt/vilnius/index.html#stop/1434,,
8345,,"Tuputiškės",,54.67655,25.34235,https://www.stops.lt/vilnius/index.html#stop/1435,,
8333,,"Žemoji st.",,54.67615,25.35091,https://www.stops.lt/vilnius/index.html#stop/1432,,
8335,,"Žemoji st.",,54.67619,25.35063,https://www.stops.lt/vilnius/index.html#stop/1433,,
8331,,"Žiedų st.",,54.67762,25.35552,https://www.stops.lt/vilnius/index.html#stop/1430,,
8332,,"Žiedų st.",,54.67737,25.35472,https://www.stops.lt/vilnius/index.html#stop/1431,,
15639,,"Pavilionys",,54.74167,25.22222,https://www.stops.lt/vilnius/index.html#stop/3318,,
15634,,"Perkūnkiemis",,54.73921,25.22016,https://www.stops.lt/vilnius/index.html#stop/3309,,
15636,,"Perkūnkiemis",,54.73854,25.21926,https://www.stops.lt/vilnius/index.html#stop/3317,,
7693,,"Bitėnų st.",,54.70178,25.17195,https://www.stops.lt/vilnius/index.html#stop/3612,,
7694,,"Bitėnų st.",,54.70169,25.17235,https://www.stops.lt/vilnius/index.html#stop/3613,,
4526,,"Gilužio st.",,54.70400,25.17438,https://www.stops.lt/vilnius/index.html#stop/3609,,
7695,,"Gilužio st.",,54.70451,25.17449,https://www.stops.lt/vilnius/index.html#stop/3614,,
8067,,"Karaliaučiaus st.",,54.70798,25.17510,https://www.stops.lt/vilnius/index.html#stop/3628,,
8059,,"Papilėnų st.",,54.70816,25.18651,https://www.stops.lt/vilnius/index.html#stop/3604,,
7948,,"Įsruties st.",,54.71045,25.18122,https://www.stops.lt/vilnius/index.html#stop/3623,,
7949,,"Įsruties st.",,54.70994,25.18293,https://www.stops.lt/vilnius/index.html#stop/3624,,
7950,,"Pajautos st.",,54.71050,25.17406,https://www.stops.lt/vilnius/index.html#stop/3625,,
7951,,"Pajautos st.",,54.71018,25.17608,https://www.stops.lt/vilnius/index.html#stop/3626,,
7959,,"Pajautos st.",,54.70977,25.17488,https://www.stops.lt/vilnius/index.html#stop/3627,,
8060,,"Pilaitė",,54.70247,25.20345,https://www.stops.lt/vilnius/index.html#stop/3602,,
4988,,"Piliakalnio st.",,54.69991,25.21175,https://www.stops.lt/vilnius/index.html#stop/5164,,
4989,,"Piliakalnio st.",,54.69943,25.21248,https://www.stops.lt/vilnius/index.html#stop/5165,,
7947,,"Smalinės st.",,54.70932,25.18742,https://www.stops.lt/vilnius/index.html#stop/3622,,
8069,,"Smalinės st.",,54.70855,25.18792,https://www.stops.lt/vilnius/index.html#stop/3629,,
6621,,"Senoji  Pilaitė",,54.70416,25.19664,https://www.stops.lt/vilnius/index.html#stop/3601,,
6611,,"Karaliaučiaus st.",,54.70725,25.17582,https://www.stops.lt/vilnius/index.html#stop/3607,,
6612,,"Karaliaučiaus st.",,54.70740,25.17572,https://www.stops.lt/vilnius/index.html#stop/3608,,
6618,,"Papilėnų st.",,54.70685,25.18741,https://www.stops.lt/vilnius/index.html#stop/3603,,
6614,,"Tolminkiemio st.",,54.70736,25.18119,https://www.stops.lt/vilnius/index.html#stop/3606,,
6615,,"Tolminkiemio st.",,54.70721,25.18009,https://www.stops.lt/vilnius/index.html#stop/3605,,
9561,,"Papilėnų st.",,54.70753,25.18781,https://www.stops.lt/vilnius/index.html#stop/3635,,
8370,,"Padekaniškės",,54.71059,25.16035,https://www.stops.lt/vilnius/index.html#stop/3632,,
8371,,"Padekaniškės",,54.71045,25.16312,https://www.stops.lt/vilnius/index.html#stop/3633,,
8934,,"Pilaitė",,54.70095,25.20542,https://www.stops.lt/vilnius/index.html#stop/3634,,
5948,,"Liepkalnis",,54.66285,25.29885,https://www.stops.lt/vilnius/index.html#stop/1514,,
6019,,"Perlojos st.",,54.66423,25.29368,https://www.stops.lt/vilnius/index.html#stop/1512,,
6020,,"Perlojos st.",,54.66464,25.29225,https://www.stops.lt/vilnius/index.html#stop/1317,,
5946,,"Liepkalnis",,54.66287,25.29995,https://www.stops.lt/vilnius/index.html#stop/1316,,
5947,,"Liepkalnis",,54.66298,25.30015,https://www.stops.lt/vilnius/index.html#stop/1315,,
5998,,"Žirnių st.",,54.65469,25.30307,https://www.stops.lt/vilnius/index.html#stop/1314,,
6673,,"Gervėčių st.",,54.67460,25.29728,https://www.stops.lt/vilnius/index.html#stop/0418,,
6674,,"Gervėčių st.",,54.67336,25.29882,https://www.stops.lt/vilnius/index.html#stop/0419,,
6675,,"Rasų kapinės",,54.67002,25.30118,https://www.stops.lt/vilnius/index.html#stop/1307,,
6676,,"Rasų kapinės",,54.67046,25.30109,https://www.stops.lt/vilnius/index.html#stop/1306,,
6678,,"Dunojaus st.",,54.66644,25.30701,https://www.stops.lt/vilnius/index.html#stop/1309,,
6679,,"Dunojaus st.",,54.66661,25.30673,https://www.stops.lt/vilnius/index.html#stop/1308,,
6682,,"Juodasis kelias",,54.66648,25.32460,https://www.stops.lt/vilnius/index.html#stop/1312,,
6683,,"Juodasis kelias",,54.66634,25.32542,https://www.stops.lt/vilnius/index.html#stop/1313,,
6680,,"Ribiškės",,54.66687,25.31260,https://www.stops.lt/vilnius/index.html#stop/1310,,
6681,,"Ribiškės",,54.66684,25.31329,https://www.stops.lt/vilnius/index.html#stop/1311,,
7688,,"Balstogės st.",,54.67221,25.30501,https://www.stops.lt/vilnius/index.html#stop/1318,,
7689,,"Balstogės st.",,54.67137,25.30457,https://www.stops.lt/vilnius/index.html#stop/1319,,
8365,,"Liepkalnis",,54.66277,25.29962,https://www.stops.lt/vilnius/index.html#stop/1519,,
7108,,"Beržų st.",,54.80761,25.24898,https://www.stops.lt/vilnius/index.html#stop/5135,,
7344,,"Beržų st.",,54.80782,25.24738,https://www.stops.lt/vilnius/index.html#stop/5192,,
7109,,"Riešės gimnazija",,54.80852,25.23468,https://www.stops.lt/vilnius/index.html#stop/5104,,
7110,,"Riešės gimnazija",,54.80876,25.23330,https://www.stops.lt/vilnius/index.html#stop/5103,,
7106,,"Didžioji Riešė",,54.80607,25.25677,https://www.stops.lt/vilnius/index.html#stop/5101,,
7107,,"Didžioji Riešė",,54.80688,25.25676,https://www.stops.lt/vilnius/index.html#stop/5102,,
7103,,"Kaštonų st.",,54.79815,25.26213,https://www.stops.lt/vilnius/index.html#stop/5131,,
7104,,"Kaštonų st.",,54.79836,25.26211,https://www.stops.lt/vilnius/index.html#stop/5132,,
7097,,"Kiparisų st.",,54.78219,25.27196,https://www.stops.lt/vilnius/index.html#stop/5125,,
7098,,"Kiparisų st.",,54.78325,25.27173,https://www.stops.lt/vilnius/index.html#stop/5126,,
7101,,"Lauko st.",,54.79221,25.26597,https://www.stops.lt/vilnius/index.html#stop/5129,,
7102,,"Lauko st.",,54.79315,25.26582,https://www.stops.lt/vilnius/index.html#stop/5130,,
7099,,"Samanų st.",,54.78641,25.26938,https://www.stops.lt/vilnius/index.html#stop/5127,,
7100,,"Samanų st.",,54.78714,25.26907,https://www.stops.lt/vilnius/index.html#stop/5128,,
4590,,"Alyvų st.",,54.80490,25.26845,https://www.stops.lt/vilnius/index.html#stop/5121,,
4591,,"Alyvų st.",,54.80492,25.27128,https://www.stops.lt/vilnius/index.html#stop/5122,,
8324,,"Kooperatyvo st.",,54.80180,25.25981,https://www.stops.lt/vilnius/index.html#stop/5202,,
8325,,"Kooperatyvo st.",,54.80107,25.26002,https://www.stops.lt/vilnius/index.html#stop/5201,,
8472,,"Vanaginės žiedas",,54.78134,25.27287,https://www.stops.lt/vilnius/index.html#stop/5206,,
5975,,"Čekėnų st.",,54.59265,25.33948,https://www.stops.lt/vilnius/index.html#stop/4322,,
5976,,"Čekėnų st.",,54.59302,25.33798,https://www.stops.lt/vilnius/index.html#stop/4321,,
5978,,"Rudamina",,54.59135,25.34825,https://www.stops.lt/vilnius/index.html#stop/4320,,
5973,,"Rudaminos paukštynas",,54.59464,25.32951,https://www.stops.lt/vilnius/index.html#stop/4324,,
5974,,"Rudaminos paukštynas",,54.59484,25.32915,https://www.stops.lt/vilnius/index.html#stop/4323,,
5981,,"Draugystės st.",,54.59598,25.36412,https://www.stops.lt/vilnius/index.html#stop/4318,,
5982,,"Draugystės st.",,54.59592,25.36351,https://www.stops.lt/vilnius/index.html#stop/4317,,
6260,,"Mechanikų st.",,54.60968,25.25171,https://www.stops.lt/vilnius/index.html#stop/2708,,
6261,,"Mechanikų st.",,54.60970,25.25147,https://www.stops.lt/vilnius/index.html#stop/2709,,
6263,,"Salininkų žiedas",,54.61419,25.25197,https://www.stops.lt/vilnius/index.html#stop/2706,,
6264,,"Salininkų žiedas",,54.61403,25.25182,https://www.stops.lt/vilnius/index.html#stop/2707,,
6972,,"Kelmijos sodai",,54.60789,25.24404,https://www.stops.lt/vilnius/index.html#stop/5137,,
6973,,"Kelmijos sodai",,54.60828,25.24382,https://www.stops.lt/vilnius/index.html#stop/5136,,
6253,,"Melioratorių st.",,54.60512,25.26033,https://www.stops.lt/vilnius/index.html#stop/2713,,
6254,,"Melioratorių st.",,54.60525,25.25838,https://www.stops.lt/vilnius/index.html#stop/2712,,
6246,,"Pervaža",,54.60948,25.27456,https://www.stops.lt/vilnius/index.html#stop/2715,,
6247,,"Pervaža",,54.60923,25.27467,https://www.stops.lt/vilnius/index.html#stop/4008,,
4705,,"Raistelių miškas",,54.61127,25.23016,https://www.stops.lt/vilnius/index.html#stop/5145,,
4706,,"Raistelių miškas",,54.61112,25.23105,https://www.stops.lt/vilnius/index.html#stop/5146,,
6243,,"Sakalaičių st.",,54.61186,25.27491,https://www.stops.lt/vilnius/index.html#stop/2638,,
6244,,"Sakalaičių st.",,54.61265,25.27545,https://www.stops.lt/vilnius/index.html#stop/4007,,
6256,,"Salininkai",,54.60566,25.25161,https://www.stops.lt/vilnius/index.html#stop/2711,,
6257,,"Salininkai",,54.60565,25.25118,https://www.stops.lt/vilnius/index.html#stop/2710,,
6240,,"Salininkų sodai",,54.61803,25.28348,https://www.stops.lt/vilnius/index.html#stop/2637,,
6241,,"Salininkų sodai",,54.61823,25.28465,https://www.stops.lt/vilnius/index.html#stop/4006,,
6248,,"Vilniaus st.",,54.60566,25.26949,https://www.stops.lt/vilnius/index.html#stop/2714,,
6249,,"Vilniaus st.",,54.60611,25.27069,https://www.stops.lt/vilnius/index.html#stop/2815,,
9757,,"Avinėlių st.",,54.60081,25.27358,https://www.stops.lt/vilnius/index.html#stop/2732,,
9759,,"Avinėlių st.",,54.60091,25.27383,https://www.stops.lt/vilnius/index.html#stop/2733,,
9740,,"Salininkai",,54.60621,25.25050,https://www.stops.lt/vilnius/index.html#stop/2731,,
8329,,"Pupinė",,54.62137,25.29469,https://www.stops.lt/vilnius/index.html#stop/2646,,
8330,,"Pupinė",,54.62153,25.29581,https://www.stops.lt/vilnius/index.html#stop/2647,,
9003,,"Salininkai",,54.60589,25.24960,https://www.stops.lt/vilnius/index.html#stop/2719,,
370,,"Bajorų sodai",,54.75762,25.25671,https://www.stops.lt/vilnius/index.html#stop/2105,,
6778,,"Akademijos st.",,54.75262,25.27066,https://www.stops.lt/vilnius/index.html#stop/2107,,
6774,,"Maumedžių st.",,54.74065,25.26436,https://www.stops.lt/vilnius/index.html#stop/2131,,
6775,,"Maumedžių st.",,54.74108,25.26437,https://www.stops.lt/vilnius/index.html#stop/2132,,
6503,,"Žaliųjų Ežerų st.",,54.74855,25.27913,https://www.stops.lt/vilnius/index.html#stop/2116,,
7046,,"Jono Kairiūkščio st.",,54.75718,25.26991,https://www.stops.lt/vilnius/index.html#stop/2110,,
7047,,"Jono Kairiūkščio st.",,54.75705,25.27026,https://www.stops.lt/vilnius/index.html#stop/2109,,
1115,,"Visoriai",,54.75781,25.26474,https://www.stops.lt/vilnius/index.html#stop/2111,,
7968,,"Akademijos st.",,54.75352,25.26838,https://www.stops.lt/vilnius/index.html#stop/2144,,
7052,,"Chemijos institutas",,54.75385,25.26385,https://www.stops.lt/vilnius/index.html#stop/2133,,
6783,,"Molėtų plentas",,54.75031,25.27754,https://www.stops.lt/vilnius/index.html#stop/2118,,
7980,,"Akademijos st.",,54.75391,25.27025,https://www.stops.lt/vilnius/index.html#stop/2143,,
7094,,"Vanaginė",,54.77380,25.27197,https://www.stops.lt/vilnius/index.html#stop/5107,,
7095,,"Vanaginė",,54.77539,25.27291,https://www.stops.lt/vilnius/index.html#stop/5106,,
7826,,"Muzikų st.",,54.75921,25.28157,https://www.stops.lt/vilnius/index.html#stop/2134,,
7827,,"Muzikų st.",,54.75832,25.28103,https://www.stops.lt/vilnius/index.html#stop/2135,,
6526,,"Santariškės",,54.75200,25.27979,https://www.stops.lt/vilnius/index.html#stop/2121,,
6532,,"Santariškės",,54.75286,25.28031,https://www.stops.lt/vilnius/index.html#stop/2122,,
7828,,"Santariškių žiedas",,54.76359,25.28252,https://www.stops.lt/vilnius/index.html#stop/2136,,
7830,,"Santariškių žiedas",,54.76370,25.28215,https://www.stops.lt/vilnius/index.html#stop/2137,,
6533,,"Vaikų ligoninė",,54.75633,25.28131,https://www.stops.lt/vilnius/index.html#stop/2123,,
7831,,"Vaikų ligoninė",,54.75551,25.28054,https://www.stops.lt/vilnius/index.html#stop/2138,,
6525,,"Žaliųjų Ežerų st.",,54.75062,25.27982,https://www.stops.lt/vilnius/index.html#stop/2120,,
8326,,"Akademijos st.",,54.75263,25.27239,https://www.stops.lt/vilnius/index.html#stop/2141,,
8327,,"Molėtų plentas",,54.74975,25.27810,https://www.stops.lt/vilnius/index.html#stop/2117,,
8716,,"Vaikų ligoninė",,54.75613,25.28085,https://www.stops.lt/vilnius/index.html#stop/2147,,
10244,,"Vaikų ligoninė",,54.75524,25.28088,https://www.stops.lt/vilnius/index.html#stop/2156,,
16627,,"Petro Baublio st.",,54.75086,25.28497,https://www.stops.lt/vilnius/index.html#stop/2127,,
16628,,"Petro Baublio st.",,54.75052,25.28355,https://www.stops.lt/vilnius/index.html#stop/2125,,
7278,,"Karaliaus Mindaugo tiltas",,54.68822,25.28900,https://www.stops.lt/vilnius/index.html#stop/0441,,
6714,,"Aušros vartai",,54.67368,25.28949,https://www.stops.lt/vilnius/index.html#stop/0416,,
5892,,"Bernardinų sodas",,54.68497,25.29110,https://www.stops.lt/vilnius/index.html#stop/0432,,
5893,,"Bernardinų sodas",,54.68472,25.29025,https://www.stops.lt/vilnius/index.html#stop/0431,,
5355,,"Bazilijonų st.",,54.67408,25.28657,https://www.stops.lt/vilnius/index.html#stop/5153,,
5430,,"Gėlių st.",,54.67424,25.28366,https://www.stops.lt/vilnius/index.html#stop/0412,,
5605,,"Trakų st.",,54.68004,25.27628,https://www.stops.lt/vilnius/index.html#stop/0408,,
5941,,"Pelesos st.",,54.67108,25.29127,https://www.stops.lt/vilnius/index.html#stop/1302,,
5942,,"Pelesos st.",,54.67140,25.29175,https://www.stops.lt/vilnius/index.html#stop/1303,,
5944,,"Stadionas",,54.66756,25.29710,https://www.stops.lt/vilnius/index.html#stop/1305,,
5945,,"Stadionas",,54.66848,25.29639,https://www.stops.lt/vilnius/index.html#stop/1304,,
407,,"Dailės akademija",,54.68212,25.29297,https://www.stops.lt/vilnius/index.html#stop/0429,,
5894,,"Dailės akademija",,54.68401,25.29287,https://www.stops.lt/vilnius/index.html#stop/0430,,
7123,,"Užupio st.",,54.67994,25.29236,https://www.stops.lt/vilnius/index.html#stop/0427,,
7124,,"Užupio st.",,54.67991,25.29266,https://www.stops.lt/vilnius/index.html#stop/0426,,
5358,,"Aušros vartai",,54.67473,25.29278,https://www.stops.lt/vilnius/index.html#stop/0417,,
6574,,"Polocko st.",,54.68270,25.31266,https://www.stops.lt/vilnius/index.html#stop/0436,,
6008,,"Panevėžio st.",,54.66793,25.28368,https://www.stops.lt/vilnius/index.html#stop/0529,,
6009,,"Panevėžio st.",,54.66814,25.28476,https://www.stops.lt/vilnius/index.html#stop/1509,,
6005,,"Pelesos st.",,54.67085,25.28921,https://www.stops.lt/vilnius/index.html#stop/0528,,
6006,,"Pelesos st.",,54.67091,25.28961,https://www.stops.lt/vilnius/index.html#stop/1301,,
5345,,"MO muziejus",,54.67934,25.27802,https://www.stops.lt/vilnius/index.html#stop/0409,,
5346,,"MO muziejus",,54.67902,25.27855,https://www.stops.lt/vilnius/index.html#stop/0410,,
5339,,"Reformatų st.",,54.68117,25.27731,https://www.stops.lt/vilnius/index.html#stop/0407,,
5432,,"Reformatų st.",,54.68149,25.27740,https://www.stops.lt/vilnius/index.html#stop/0406,,
6834,,"Rūdninkų st.",,54.67454,25.28492,https://www.stops.lt/vilnius/index.html#stop/0413,,
5349,,"Vingriai",,54.67665,25.28086,https://www.stops.lt/vilnius/index.html#stop/0411,,
5902,,"Bernardinų kapinės",,54.68145,25.30538,https://www.stops.lt/vilnius/index.html#stop/0434,,
5904,,"Bernardinų st.",,54.68200,25.31198,https://www.stops.lt/vilnius/index.html#stop/0435,,
5901,,"Užupis",,54.68121,25.30076,https://www.stops.lt/vilnius/index.html#stop/0433,,
5360,,"Misionierių st.",,54.67660,25.29735,https://www.stops.lt/vilnius/index.html#stop/0420,,
5428,,"Misionierių st.",,54.67662,25.29652,https://www.stops.lt/vilnius/index.html#stop/0421,,
946,,"Subačiaus st.",,54.67723,25.30249,https://www.stops.lt/vilnius/index.html#stop/0423,,
5362,,"Subačiaus st.",,54.67701,25.30362,https://www.stops.lt/vilnius/index.html#stop/0422,,
5854,,"Zarasų st.",,54.67624,25.31040,https://www.stops.lt/vilnius/index.html#stop/1201,,
5855,,"Zarasų st.",,54.67658,25.30940,https://www.stops.lt/vilnius/index.html#stop/1202,,
5771,,"Kalnų parkas",,54.68938,25.29450,https://www.stops.lt/vilnius/index.html#stop/0403,,
6573,,"Kalnų parkas",,54.68965,25.29581,https://www.stops.lt/vilnius/index.html#stop/0404,,
5768,,"Šv. Petro ir Povilo bažnyčia",,54.69301,25.30313,https://www.stops.lt/vilnius/index.html#stop/0401,,
5770,,"Šv. Petro ir Povilo bažnyčia",,54.69275,25.30315,https://www.stops.lt/vilnius/index.html#stop/0402,,
5900,,"Vilnios st.",,54.68024,25.29365,https://www.stops.lt/vilnius/index.html#stop/0428,,
7840,,"Gervėčių st.",,54.67390,25.29923,https://www.stops.lt/vilnius/index.html#stop/0443,,
7841,,"Gervėčių st.",,54.67365,25.29757,https://www.stops.lt/vilnius/index.html#stop/0444,,
9313,,"Bazilijonų st.",,54.67442,25.28595,https://www.stops.lt/vilnius/index.html#stop/0446,,
15581,,"Aušros vartai",,54.67417,25.28808,https://www.stops.lt/vilnius/index.html#stop/0440,,
9013,,"Rotušė",,54.67823,25.28634,https://www.stops.lt/vilnius/index.html#stop/0247,,
16821,,"Rotušė",,54.67792,25.28756,https://www.stops.lt/vilnius/index.html#stop/0449,,
8821,,"Ramybės st.",,54.67203,25.29905,https://www.stops.lt/vilnius/index.html#stop/0445,,
9012,,"Vokiečių st.",,54.68057,25.28274,https://www.stops.lt/vilnius/index.html#stop/0245a,,
393,,"Buivydiškių st.",,54.71394,25.23743,https://www.stops.lt/vilnius/index.html#stop/1910,,
394,,"Buivydiškių st.",,54.71322,25.23789,https://www.stops.lt/vilnius/index.html#stop/1909,,
855,,"Rygos st.",,54.71575,25.23211,https://www.stops.lt/vilnius/index.html#stop/1911,,
5074,,"Vaikų kaimas",,54.70949,25.24035,https://www.stops.lt/vilnius/index.html#stop/1908,,
6933,,"Gelvonėlio st.",,54.71443,25.25677,https://www.stops.lt/vilnius/index.html#stop/1924,,
6934,,"Gelvonėlio st.",,54.71505,25.25741,https://www.stops.lt/vilnius/index.html#stop/1925,,
6928,,"Gelvonų st.",,54.71764,25.25763,https://www.stops.lt/vilnius/index.html#stop/1927,,
6929,,"Gelvonų st.",,54.71838,25.25767,https://www.stops.lt/vilnius/index.html#stop/1928,,
3512,,"Šeškinės kalvos",,54.71157,25.25700,https://www.stops.lt/vilnius/index.html#stop/1930,,
6478,,"Čiobiškio st.",,54.71893,25.23200,https://www.stops.lt/vilnius/index.html#stop/3219,,
6479,,"Čiobiškio st.",,54.71946,25.23292,https://www.stops.lt/vilnius/index.html#stop/1913,,
5067,,"Rygos st.",,54.71687,25.23153,https://www.stops.lt/vilnius/index.html#stop/1912,,
6477,,"Rygos st.",,54.71560,25.23019,https://www.stops.lt/vilnius/index.html#stop/1802,,
6937,,"Šeškinės kalvos",,54.71085,25.25622,https://www.stops.lt/vilnius/index.html#stop/1931,,
7017,,"Šeškinės kalvos",,54.71109,25.25819,https://www.stops.lt/vilnius/index.html#stop/1923,,
904,,"Siesikų st.",,54.70980,25.24424,https://www.stops.lt/vilnius/index.html#stop/1906,,
905,,"Siesikų st.",,54.70985,25.24636,https://www.stops.lt/vilnius/index.html#stop/1905,,
1069,,"Vaikų kaimas",,54.70877,25.24118,https://www.stops.lt/vilnius/index.html#stop/1907,,
6940,,"Paberžės st.",,54.71616,25.25481,https://www.stops.lt/vilnius/index.html#stop/1926,,
6941,,"Paberžės st.",,54.71617,25.25358,https://www.stops.lt/vilnius/index.html#stop/1929,,
5209,,"Dūkštų st.",,54.71500,25.24638,https://www.stops.lt/vilnius/index.html#stop/1918,,
7003,,"Dūkštų st.",,54.71486,25.24528,https://www.stops.lt/vilnius/index.html#stop/1917,,
733,,"Musninkų st.",,54.71665,25.24386,https://www.stops.lt/vilnius/index.html#stop/1920,,
5206,,"Musninkų st.",,54.71690,25.24484,https://www.stops.lt/vilnius/index.html#stop/1933,,
5208,,"Musninkų st.",,54.71662,25.24452,https://www.stops.lt/vilnius/index.html#stop/1919,,
1042,,"Ukmergės st.",,54.71328,25.25166,https://www.stops.lt/vilnius/index.html#stop/1922,,
5214,,"Šeškinė",,54.70963,25.25157,https://www.stops.lt/vilnius/index.html#stop/1903,,
5290,,"Šeškinė",,54.70976,25.25213,https://www.stops.lt/vilnius/index.html#stop/1902,,
986,,"Šeškinės poliklinika",,54.71606,25.24745,https://www.stops.lt/vilnius/index.html#stop/1921,,
5452,,"Šeškinės poliklinika",,54.71545,25.24715,https://www.stops.lt/vilnius/index.html#stop/1932,,
1039,,"Ukmergės st.",,54.71245,25.24974,https://www.stops.lt/vilnius/index.html#stop/1916,,
5212,,"Ukmergės st.",,54.71194,25.24942,https://www.stops.lt/vilnius/index.html#stop/1915,,
5294,,"Ukmergės st.",,54.71201,25.24880,https://www.stops.lt/vilnius/index.html#stop/1914,,
5985,,"Skaidiškės",,54.60583,25.38387,https://www.stops.lt/vilnius/index.html#stop/4313,,
5986,,"Skaidiškės",,54.60640,25.38357,https://www.stops.lt/vilnius/index.html#stop/4314,,
6137,,"Skaidiškės",,54.60569,25.38255,https://www.stops.lt/vilnius/index.html#stop/4316,,
5988,,"Skaidiškių žiedas",,54.60943,25.38599,https://www.stops.lt/vilnius/index.html#stop/4312,,
863,,"Skaistės st.",,54.60573,25.39316,https://www.stops.lt/vilnius/index.html#stop/4315,,
6844,,"Broniaus Laurinavičiaus skveras",,54.70419,25.28405,https://www.stops.lt/vilnius/index.html#stop/0914,,
5351,,"Giedraičių st.",,54.70734,25.28494,https://www.stops.lt/vilnius/index.html#stop/0707,,
6845,,"Giedraičių st.",,54.70804,25.28550,https://www.stops.lt/vilnius/index.html#stop/0916,,
5481,,"Pramogų arena",,54.71448,25.28664,https://www.stops.lt/vilnius/index.html#stop/0709,,
5861,,"Pramogų arena",,54.71626,25.28694,https://www.stops.lt/vilnius/index.html#stop/0802,,
5347,,"Tauragnų st.",,54.71169,25.28625,https://www.stops.lt/vilnius/index.html#stop/0708,,
5469,,"Tauragnų st.",,54.71234,25.28672,https://www.stops.lt/vilnius/index.html#stop/0803,,
5467,,"Žalgirio st.",,54.70308,25.28353,https://www.stops.lt/vilnius/index.html#stop/0705,,
6788,,"Žalgirio st.",,54.70436,25.28434,https://www.stops.lt/vilnius/index.html#stop/0915,,
5498,,"Žalgirio st.",,54.70390,25.28302,https://www.stops.lt/vilnius/index.html#stop/0706,,
8460,,"Ozo žiedas",,54.71465,25.27770,https://www.stops.lt/vilnius/index.html#stop/0825,,
8462,,"Ozo žiedas",,54.71539,25.27730,https://www.stops.lt/vilnius/index.html#stop/0827,,
17318,,"Oršos st.",,54.70417,25.27691,https://www.stops.lt/vilnius/index.html#stop/0716,,
7615,,"Raudonbalė",,54.74939,25.18096,https://www.stops.lt/vilnius/index.html#stop/3910,,
8045,,"Laidagaliai",,54.74685,25.19002,https://www.stops.lt/vilnius/index.html#stop/5008,,
8046,,"Laidagaliai",,54.74665,25.19087,https://www.stops.lt/vilnius/index.html#stop/5009,,
8043,,"Tarandė",,54.74938,25.20812,https://www.stops.lt/vilnius/index.html#stop/5006,,
8044,,"Tarandė",,54.74932,25.20724,https://www.stops.lt/vilnius/index.html#stop/5007,,
8047,,"Tomo Žebrausko st.",,54.74830,25.20030,https://www.stops.lt/vilnius/index.html#stop/5010,,
8048,,"Tomo Žebrausko st.",,54.74800,25.19964,https://www.stops.lt/vilnius/index.html#stop/5011,,
7081,,"Bukiškių st.",,54.75758,25.20566,https://www.stops.lt/vilnius/index.html#stop/5005,,
7078,,"Medelynas",,54.75095,25.21377,https://www.stops.lt/vilnius/index.html#stop/5003,,
7079,,"Medelynas",,54.74959,25.21489,https://www.stops.lt/vilnius/index.html#stop/5004,,
7076,,"Pavilionys",,54.74187,25.22410,https://www.stops.lt/vilnius/index.html#stop/5001,,
7077,,"Pavilionys",,54.74197,25.22351,https://www.stops.lt/vilnius/index.html#stop/5002,,
16565,,"Gegliškių st.",,54.75011,25.18665,https://www.stops.lt/vilnius/index.html#stop/5020,,
16563,,"Juozo Kamarausko st.",,54.75248,25.19173,https://www.stops.lt/vilnius/index.html#stop/5019,,
8447,,"Kelmiškių st.",,54.74907,25.17862,https://www.stops.lt/vilnius/index.html#stop/5014,,
16561,,"Kelpių st.",,54.75556,25.19598,https://www.stops.lt/vilnius/index.html#stop/5018,,
8444,,"Pagrandos st.",,54.74662,25.18268,https://www.stops.lt/vilnius/index.html#stop/5012,,
8445,,"Pagrandos st.",,54.74649,25.18251,https://www.stops.lt/vilnius/index.html#stop/5013,,
16558,,"Tomo Žebrausko st.",,54.74929,25.20103,https://www.stops.lt/vilnius/index.html#stop/5016,,
10250,,"Valai",,54.70001,25.06367,https://www.stops.lt/vilnius/index.html#stop/4117,,
7062,,"Eduardo Andrė st.",,54.62843,25.10818,https://www.stops.lt/vilnius/index.html#stop/3101,,
4516,,"Trakų Vokė",,54.62400,25.11253,https://www.stops.lt/vilnius/index.html#stop/3109,,
7059,,"Trakų Vokė",,54.62368,25.11000,https://www.stops.lt/vilnius/index.html#stop/3106,,
4456,,"Gunkliškių st.",,54.62730,25.10127,https://www.stops.lt/vilnius/index.html#stop/3105,,
7724,,"Bičiulių st.",,54.60393,25.13419,https://www.stops.lt/vilnius/index.html#stop/3110,,
7725,,"Bičiulių st.",,54.60313,25.13479,https://www.stops.lt/vilnius/index.html#stop/3111,,
7804,,"Emilijos Pliaterytės st.",,54.61762,25.11657,https://www.stops.lt/vilnius/index.html#stop/3112,,
7805,,"Emilijos Pliaterytės st.",,54.61700,25.11674,https://www.stops.lt/vilnius/index.html#stop/3113,,
7068,,"Juodbaliai",,54.61208,25.12092,https://www.stops.lt/vilnius/index.html#stop/3102,,
7069,,"Juodbaliai",,54.61189,25.12084,https://www.stops.lt/vilnius/index.html#stop/3103,,
4506,,"Juozo Tiškevičiaus st.",,54.62135,25.11329,https://www.stops.lt/vilnius/index.html#stop/3107,,
4507,,"Juozo Tiškevičiaus st.",,54.62198,25.11288,https://www.stops.lt/vilnius/index.html#stop/3108,,
7726,,"Metropolis",,54.60831,25.12912,https://www.stops.lt/vilnius/index.html#stop/3114,,
7727,,"Metropolis",,54.60870,25.12891,https://www.stops.lt/vilnius/index.html#stop/3115,,
6966,,"Ąžuolijai",,54.62186,25.24387,https://www.stops.lt/vilnius/index.html#stop/2704,,
6968,,"Ąžuolijai",,54.62168,25.24273,https://www.stops.lt/vilnius/index.html#stop/5117,,
6963,,"Eišiškių sodai",,54.62740,25.24954,https://www.stops.lt/vilnius/index.html#stop/2702,,
6964,,"Eišiškių sodai",,54.62625,25.24947,https://www.stops.lt/vilnius/index.html#stop/2703,,
6974,,"Raisteliai",,54.61123,25.21761,https://www.stops.lt/vilnius/index.html#stop/5108,,
6975,,"Raisteliai",,54.61139,25.21812,https://www.stops.lt/vilnius/index.html#stop/5109,,
6967,,"Ąžuolijai",,54.62026,25.24455,https://www.stops.lt/vilnius/index.html#stop/2705,,
6956,,"Dieveniškių st.",,54.63383,25.24933,https://www.stops.lt/vilnius/index.html#stop/2717,,
6957,,"Dieveniškių st.",,54.63407,25.24880,https://www.stops.lt/vilnius/index.html#stop/2716,,
6959,,"Užusienis",,54.63298,25.23943,https://www.stops.lt/vilnius/index.html#stop/2701,,
5756,,"Šaltinio st.",,54.60143,25.18212,https://www.stops.lt/vilnius/index.html#stop/2816,,
5757,,"Šaltinio st.",,54.60171,25.18311,https://www.stops.lt/vilnius/index.html#stop/2817,,
3575,,"Vaidotai",,54.59876,25.17635,https://www.stops.lt/vilnius/index.html#stop/2501,,
9773,,"Krantinės st.",,54.60412,25.19113,https://www.stops.lt/vilnius/index.html#stop/2824,,
9732,,"Vėjo st.",,54.59597,25.17562,https://www.stops.lt/vilnius/index.html#stop/2502,,
6907,,"Balžio st.",,54.79303,25.42904,https://www.stops.lt/vilnius/index.html#stop/3546,,
7471,,"Balžio st.",,54.79300,25.42967,https://www.stops.lt/vilnius/index.html#stop/3559,,
7470,,"Balžio žiedas",,54.79419,25.43652,https://www.stops.lt/vilnius/index.html#stop/3558,,
6905,,"Miškas",,54.78333,25.40463,https://www.stops.lt/vilnius/index.html#stop/3544,,
6906,,"Miškas",,54.78307,25.40316,https://www.stops.lt/vilnius/index.html#stop/3545,,
4426,,"Svajonių st.",,54.74065,25.31469,https://www.stops.lt/vilnius/index.html#stop/3554,,
5491,,"Oskaro Milašiaus st.",,54.72783,25.31438,https://www.stops.lt/vilnius/index.html#stop/3501,,
6084,,"Grybautojų st.",,54.73295,25.31820,https://www.stops.lt/vilnius/index.html#stop/3514,,
6082,,"Žuvėdrų st.",,54.73140,25.32414,https://www.stops.lt/vilnius/index.html#stop/3515,,
6083,,"Žuvėdrų st.",,54.73133,25.32467,https://www.stops.lt/vilnius/index.html#stop/3516,,
7936,,"Laurų st.",,54.78949,25.38327,https://www.stops.lt/vilnius/index.html#stop/3560,,
6110,,"Lizdeikos st.",,54.72872,25.31366,https://www.stops.lt/vilnius/index.html#stop/3502,,
6109,,"Rato st.",,54.73082,25.30869,https://www.stops.lt/vilnius/index.html#stop/3503,,
6163,,"Antaviliai",,54.79863,25.39775,https://www.stops.lt/vilnius/index.html#stop/3547,,
6164,,"Antaviliai",,54.79822,25.39651,https://www.stops.lt/vilnius/index.html#stop/3548,,
6165,,"Antavilių žiedas",,54.79980,25.39922,https://www.stops.lt/vilnius/index.html#stop/3549,,
6140,,"Ežerėlių st.",,54.73855,25.34438,https://www.stops.lt/vilnius/index.html#stop/3522,,
6142,,"Ežerėlių st.",,54.73784,25.34252,https://www.stops.lt/vilnius/index.html#stop/3521,,
3610,,"Jono Biliūno st.",,54.79425,25.39154,https://www.stops.lt/vilnius/index.html#stop/3550,,
6162,,"Jono Biliūno st.",,54.79371,25.39069,https://www.stops.lt/vilnius/index.html#stop/3551,,
6154,,"Karačiūnai",,54.77234,25.38218,https://www.stops.lt/vilnius/index.html#stop/3540,,
6155,,"Karačiūnai",,54.77306,25.38303,https://www.stops.lt/vilnius/index.html#stop/3541,,
950,,"Kiškių st.",,54.73457,25.33814,https://www.stops.lt/vilnius/index.html#stop/3520,,
6141,,"Kiškių st.",,54.73383,25.33664,https://www.stops.lt/vilnius/index.html#stop/3519,,
6079,,"Lakštingalų st.",,54.72880,25.32883,https://www.stops.lt/vilnius/index.html#stop/1123,,
6081,,"Lakštingalų st.",,54.72998,25.33112,https://www.stops.lt/vilnius/index.html#stop/3518,,
6143,,"Nugalėtojų st.",,54.74176,25.34931,https://www.stops.lt/vilnius/index.html#stop/3553,,
6144,,"Nugalėtojų st.",,54.74172,25.34857,https://www.stops.lt/vilnius/index.html#stop/3552,,
6159,,"Šilas",,54.78204,25.38346,https://www.stops.lt/vilnius/index.html#stop/3542,,
6160,,"Šilas",,54.78313,25.38376,https://www.stops.lt/vilnius/index.html#stop/3543,,
6148,,"Smėlynė",,54.75471,25.36580,https://www.stops.lt/vilnius/index.html#stop/3537,,
6149,,"Smėlynė",,54.75437,25.36489,https://www.stops.lt/vilnius/index.html#stop/3536,,
6146,,"Turniškių miškas",,54.74815,25.35776,https://www.stops.lt/vilnius/index.html#stop/3534,,
6147,,"Turniškių miškas",,54.74838,25.35849,https://www.stops.lt/vilnius/index.html#stop/3535,,
6152,,"Veržuvos st.",,54.76149,25.37262,https://www.stops.lt/vilnius/index.html#stop/3538,,
6153,,"Veržuvos st.",,54.76224,25.37405,https://www.stops.lt/vilnius/index.html#stop/3539,,
976,,"Aukštoji Veržuva",,54.74999,25.42812,https://www.stops.lt/vilnius/index.html#stop/3533,,
6901,,"Vaguva",,54.74711,25.41714,https://www.stops.lt/vilnius/index.html#stop/3532,,
6902,,"Vaguva",,54.74725,25.41687,https://www.stops.lt/vilnius/index.html#stop/3531,,
6100,,"Bruknių st.",,54.74355,25.30345,https://www.stops.lt/vilnius/index.html#stop/3507,,
1028,,"Turniškės",,54.74512,25.32753,https://www.stops.lt/vilnius/index.html#stop/3510,,
6107,,"1-asis paplūdimys",,54.73311,25.29605,https://www.stops.lt/vilnius/index.html#stop/3504,,
6104,,"2-asis paplūdimys",,54.74239,25.29460,https://www.stops.lt/vilnius/index.html#stop/3506,,
6106,,"Vaidilutės st.",,54.73604,25.29455,https://www.stops.lt/vilnius/index.html#stop/3505,,
6087,,"Grybautojų st.",,54.73330,25.31756,https://www.stops.lt/vilnius/index.html#stop/3513,,
6090,,"Mėlynių st.",,54.73969,25.31569,https://www.stops.lt/vilnius/index.html#stop/3512,,
6095,,"Meškeriotojų st.",,54.74585,25.31977,https://www.stops.lt/vilnius/index.html#stop/3509,,
6096,,"Meškeriotojų st.",,54.74621,25.32017,https://www.stops.lt/vilnius/index.html#stop/3508,,
16147,,"Lizdeikos st.",,54.72898,25.31338,https://www.stops.lt/vilnius/index.html#stop/3564,,
16148,,"Rato st.",,54.73061,25.30952,https://www.stops.lt/vilnius/index.html#stop/3565,,
16152,,"Bruknių st.",,54.74326,25.30429,https://www.stops.lt/vilnius/index.html#stop/3568,,
16153,,"Svajonių st.",,54.74109,25.31276,https://www.stops.lt/vilnius/index.html#stop/3569,,
16145,,"1-asis paplūdimys",,54.73265,25.29831,https://www.stops.lt/vilnius/index.html#stop/3500,,
16150,,"2-asis paplūdimys",,54.74190,25.29484,https://www.stops.lt/vilnius/index.html#stop/3567,,
16149,,"Vaidilutės st.",,54.73656,25.29460,https://www.stops.lt/vilnius/index.html#stop/3566,,
16155,,"Grybautojų st.",,54.73258,25.31774,https://www.stops.lt/vilnius/index.html#stop/3571,,
8094,,"Chemijos institutas",,54.75508,25.26182,https://www.stops.lt/vilnius/index.html#stop/2106,,
8025,,"Birelių žiedas",,54.82336,25.33030,https://www.stops.lt/vilnius/index.html#stop/2245,,
8085,,"Juozapiškės",,54.80947,25.35237,https://www.stops.lt/vilnius/index.html#stop/2246,,
8086,,"Juozapiškės",,54.80698,25.35280,https://www.stops.lt/vilnius/index.html#stop/2247,,
8090,,"Naujaneriai",,54.80194,25.34928,https://www.stops.lt/vilnius/index.html#stop/2227,,
7343,,"Prašiškės",,54.76817,25.27152,https://www.stops.lt/vilnius/index.html#stop/5191,,
7374,,"Prašiškės",,54.76860,25.27183,https://www.stops.lt/vilnius/index.html#stop/5198,,
7092,,"Skersinės st.",,54.76518,25.27190,https://www.stops.lt/vilnius/index.html#stop/5116,,
7093,,"Skersinės st.",,54.76453,25.27160,https://www.stops.lt/vilnius/index.html#stop/5115,,
6816,,"Naujoji st.",,54.76332,25.34632,https://www.stops.lt/vilnius/index.html#stop/2224,,
6817,,"Naujoji st.",,54.76349,25.34598,https://www.stops.lt/vilnius/index.html#stop/2225,,
6820,,"Ožkiniai",,54.76718,25.36150,https://www.stops.lt/vilnius/index.html#stop/2217,,
6821,,"Ožkiniai",,54.76706,25.36011,https://www.stops.lt/vilnius/index.html#stop/2216,,
1144,,"Ožkinių žiedas",,54.76844,25.36646,https://www.stops.lt/vilnius/index.html#stop/2218,,
6818,,"Staviškės",,54.76398,25.35276,https://www.stops.lt/vilnius/index.html#stop/2215,,
6819,,"Staviškės",,54.76345,25.35162,https://www.stops.lt/vilnius/index.html#stop/2214,,
8012,,"Gulbinų st.",,54.80584,25.31892,https://www.stops.lt/vilnius/index.html#stop/2233,,
8016,,"Gulbinų st.",,54.80560,25.31976,https://www.stops.lt/vilnius/index.html#stop/2234,,
8011,,"Pagubė",,54.80796,25.31320,https://www.stops.lt/vilnius/index.html#stop/2235,,
6810,,"Kremplių st.",,54.76698,25.33586,https://www.stops.lt/vilnius/index.html#stop/2206,,
6811,,"Kremplių st.",,54.76725,25.33566,https://www.stops.lt/vilnius/index.html#stop/2207,,
738,,"Naujieji Verkiai",,54.75984,25.33217,https://www.stops.lt/vilnius/index.html#stop/2202,,
6808,,"Popieriaus st.",,54.76987,25.33202,https://www.stops.lt/vilnius/index.html#stop/2208,,
6809,,"Popieriaus st.",,54.76996,25.33261,https://www.stops.lt/vilnius/index.html#stop/2209,,
1064,,"Vaikų darželis",,54.76256,25.33563,https://www.stops.lt/vilnius/index.html#stop/2205,,
6814,,"Vaikų darželis",,54.76306,25.33591,https://www.stops.lt/vilnius/index.html#stop/2204,,
4777,,"Bireliai",,54.82118,25.32066,https://www.stops.lt/vilnius/index.html#stop/2243,,
8024,,"Bireliai",,54.82099,25.32052,https://www.stops.lt/vilnius/index.html#stop/2244,,
8009,,"Diemedis",,54.80323,25.32958,https://www.stops.lt/vilnius/index.html#stop/2230,,
8017,,"Diemedis",,54.80289,25.32974,https://www.stops.lt/vilnius/index.html#stop/2231,,
8008,,"Paežerys",,54.80030,25.33611,https://www.stops.lt/vilnius/index.html#stop/2228,,
8018,,"Paežerys",,54.80012,25.33534,https://www.stops.lt/vilnius/index.html#stop/2229,,
8010,,"Sakališkės",,54.81469,25.32187,https://www.stops.lt/vilnius/index.html#stop/2237,,
6800,,"Ežerėliai",,54.76131,25.30666,https://www.stops.lt/vilnius/index.html#stop/2130,,
6801,,"Ežerėliai",,54.76255,25.31018,https://www.stops.lt/vilnius/index.html#stop/2201,,
8005,,"Krakiškės",,54.79594,25.34992,https://www.stops.lt/vilnius/index.html#stop/2238,,
8021,,"Krakiškės",,54.79522,25.35003,https://www.stops.lt/vilnius/index.html#stop/2239,,
8004,,"Kryžiokai",,54.79219,25.35118,https://www.stops.lt/vilnius/index.html#stop/2223,,
8022,,"Kryžiokai",,54.79161,25.35127,https://www.stops.lt/vilnius/index.html#stop/2236,,
6803,,"Kurklių st.",,54.77033,25.32744,https://www.stops.lt/vilnius/index.html#stop/2211,,
6804,,"Kurklių st.",,54.77002,25.32650,https://www.stops.lt/vilnius/index.html#stop/2210,,
8006,,"Naujaneriai",,54.80173,25.34841,https://www.stops.lt/vilnius/index.html#stop/2226,,
6860,,"Ragučio st.",,54.78076,25.34263,https://www.stops.lt/vilnius/index.html#stop/2220,,
6861,,"Ragučio st.",,54.78026,25.34204,https://www.stops.lt/vilnius/index.html#stop/2219,,
6856,,"Verkių Riešė",,54.77739,25.33811,https://www.stops.lt/vilnius/index.html#stop/2213,,
6857,,"Verkių Riešė",,54.77695,25.33699,https://www.stops.lt/vilnius/index.html#stop/2212,,
6797,,"Verkių rūmai",,54.75236,25.29645,https://www.stops.lt/vilnius/index.html#stop/2129,,
6798,,"Verkių rūmai",,54.75224,25.29599,https://www.stops.lt/vilnius/index.html#stop/2128,,
8363,,"Pagubės sodai",,54.80621,25.32679,https://www.stops.lt/vilnius/index.html#stop/2252,,
9001,,"Ąžuolynas",,54.81125,25.32378,https://www.stops.lt/vilnius/index.html#stop/2253,,
9002,,"Ąžuolynas",,54.81099,25.32384,https://www.stops.lt/vilnius/index.html#stop/2254,,
8367,,"Pagubės sodai",,54.80599,25.32749,https://www.stops.lt/vilnius/index.html#stop/2250,,
8368,,"Pagubės sodai",,54.80638,25.32727,https://www.stops.lt/vilnius/index.html#stop/2251,,
8364,,"Sakališkės",,54.81465,25.32173,https://www.stops.lt/vilnius/index.html#stop/2249,,
10554,,"Žaliojo Visalaukio st.",,54.77860,25.34072,https://www.stops.lt/vilnius/index.html#stop/2265,,
10556,,"Žaliojo Visalaukio st.",,54.77863,25.34044,https://www.stops.lt/vilnius/index.html#stop/2267,,
7358,,"Giraitės st.",,54.66898,25.23783,https://www.stops.lt/vilnius/index.html#stop/5196,,
7359,,"Giraitės st.",,54.66873,25.23817,https://www.stops.lt/vilnius/index.html#stop/5197,,
5778,,"Vinco Pietario st.",,54.67688,25.24579,https://www.stops.lt/vilnius/index.html#stop/0611,,
5779,,"Vingio parkas",,54.67280,25.23943,https://www.stops.lt/vilnius/index.html#stop/0609,,
5780,,"Vingio parkas",,54.67405,25.24199,https://www.stops.lt/vilnius/index.html#stop/0610,,
5532,,"Gerosios Vilties st.",,54.67080,25.24196,https://www.stops.lt/vilnius/index.html#stop/0606,,
5535,,"Gerosios Vilties st.",,54.67040,25.24159,https://www.stops.lt/vilnius/index.html#stop/0607,,
7852,,"Savanorių prospektas",,54.67340,25.24700,https://www.stops.lt/vilnius/index.html#stop/0603,,
7853,,"Savanorių prospektas",,54.67403,25.24860,https://www.stops.lt/vilnius/index.html#stop/0602a,,
6366,,"Statybininkų st.",,54.67135,25.25735,https://www.stops.lt/vilnius/index.html#stop/0612,,
6410,,"Žemaitės st.",,54.67489,25.25194,https://www.stops.lt/vilnius/index.html#stop/0601,,
16770,,"Vinco Pietario st.",,54.67638,25.25014,https://www.stops.lt/vilnius/index.html#stop/0615,,
4686,,"Karveliškių kapinės",,54.70931,25.10116,https://www.stops.lt/vilnius/index.html#stop/5144,,
7692,,"Karveliškių kapinės",,54.70928,25.10079,https://www.stops.lt/vilnius/index.html#stop/5144a,,
7698,,"Kriaučiūnai",,54.71244,25.14919,https://www.stops.lt/vilnius/index.html#stop/3615,,
7699,,"Kriaučiūnai",,54.71200,25.15055,https://www.stops.lt/vilnius/index.html#stop/3616,,
7700,,"Papiškės",,54.71607,25.13202,https://www.stops.lt/vilnius/index.html#stop/3617,,
7701,,"Papiškės",,54.71643,25.12997,https://www.stops.lt/vilnius/index.html#stop/3618,,
7702,,"Vaivadiškės",,54.71746,25.11279,https://www.stops.lt/vilnius/index.html#stop/3619,,
7703,,"Vaivadiškės",,54.71720,25.11156,https://www.stops.lt/vilnius/index.html#stop/3620,,
7728,,"Panerių miškas",,54.61641,25.22780,https://www.stops.lt/vilnius/index.html#stop/5199,,
7729,,"Panerių miškas",,54.61701,25.22945,https://www.stops.lt/vilnius/index.html#stop/5200,,
7657,,"Lyta",,54.69852,25.49468,https://www.stops.lt/vilnius/index.html#stop/2384regio,,
7658,,"Lyta",,54.69808,25.49333,https://www.stops.lt/vilnius/index.html#stop/2385regio,,
7659,,"Mickūnai",,54.70245,25.51650,https://www.stops.lt/vilnius/index.html#stop/2386regio,,
15180,,"Kalinas",,54.80778,25.28081,https://www.stops.lt/vilnius/index.html#stop/5148,,
15182,,"Kalinas",,54.80772,25.28147,https://www.stops.lt/vilnius/index.html#stop/5150,,
17307,,"Kalviškės",,54.58789,25.29504,https://www.stops.lt/vilnius/index.html#stop/4360,,
17308,,"Kalviškės",,54.58808,25.29391,https://www.stops.lt/vilnius/index.html#stop/4361,,
10122,,"Ežero st.",,54.80916,25.22766,https://www.stops.lt/vilnius/index.html#stop/5217,,
10123,,"Ežero st.",,54.80892,25.22533,https://www.stops.lt/vilnius/index.html#stop/5218,,
10089,,"Mažoji Riešė",,54.80259,25.20262,https://www.stops.lt/vilnius/index.html#stop/5207,,
10091,,"Mažoji Riešė",,54.80257,25.20164,https://www.stops.lt/vilnius/index.html#stop/5208,,
16183,,"1-asis Didžiasalis",,54.63861,25.39994,https://www.stops.lt/vilnius/index.html#stop/5231,,
16184,,"1-asis Didžiasalis",,54.64001,25.40136,https://www.stops.lt/vilnius/index.html#stop/5232,,
16176,,"2-asis Didžiasalis",,54.64802,25.40662,https://www.stops.lt/vilnius/index.html#stop/5226,,
16180,,"2-asis Didžiasalis",,54.64777,25.40621,https://www.stops.lt/vilnius/index.html#stop/5228,,
16182,,"Naujosios Vilnios sankryža",,54.65256,25.40902,https://www.stops.lt/vilnius/index.html#stop/5230,,
15181,,"Didieji Gulbinai",,54.80372,25.29594,https://www.stops.lt/vilnius/index.html#stop/5149,,
16179,,"Grigaičių žiedas",,54.66329,25.41498,https://www.stops.lt/vilnius/index.html#stop/5227,,
10095,,"Bendorėliai",,54.79055,25.19565,https://www.stops.lt/vilnius/index.html#stop/5211,,
10096,,"Bendorėliai",,54.78926,25.19489,https://www.stops.lt/vilnius/index.html#stop/5212,,
10092,,"Bendoriai",,54.79504,25.19782,https://www.stops.lt/vilnius/index.html#stop/5209,,
10094,,"Bendoriai",,54.79446,25.19728,https://www.stops.lt/vilnius/index.html#stop/5210,,
10099,,"Durpynas",,54.77086,25.19584,https://www.stops.lt/vilnius/index.html#stop/5215,,
10100,,"Durpynas",,54.77031,25.19593,https://www.stops.lt/vilnius/index.html#stop/5216,,
10097,,"Klevinė",,54.78070,25.19317,https://www.stops.lt/vilnius/index.html#stop/5213,,
10098,,"Klevinė",,54.77937,25.19272,https://www.stops.lt/vilnius/index.html#stop/5214,,
16169,,"9-asis kilometras",,54.65775,25.37406,https://www.stops.lt/vilnius/index.html#stop/5219,,
16171,,"9-asis kilometras",,54.65747,25.37603,https://www.stops.lt/vilnius/index.html#stop/5221,,
16175,,"Naujosios Vilnios sankryža",,54.65389,25.40869,https://www.stops.lt/vilnius/index.html#stop/5225,,
16173,,"Slėnis",,54.65753,25.39333,https://www.stops.lt/vilnius/index.html#stop/5223,,
16174,,"Slėnis",,54.65714,25.39439,https://www.stops.lt/vilnius/index.html#stop/5224,,
8828,,"Bukiškių st.",,54.75776,25.20586,https://www.stops.lt/vilnius/index.html#stop/5015,,
6587,,"Kaukaro st.",,54.70665,25.21577,https://www.stops.lt/vilnius/index.html#stop/1815,,
6588,,"Kaukaro st.",,54.70555,25.21579,https://www.stops.lt/vilnius/index.html#stop/3220,,
6597,,"Spaudos rūmai",,54.70361,25.22353,https://www.stops.lt/vilnius/index.html#stop/1810,,
6591,,"Troleibusų parkas",,54.70363,25.21940,https://www.stops.lt/vilnius/index.html#stop/1813,,
6476,,"Pal. Jurgio Matulaičio bažnyčia",,54.71178,25.22678,https://www.stops.lt/vilnius/index.html#stop/1803,,
6651,,"Pal. Jurgio Matulaičio bažnyčia",,54.71240,25.22824,https://www.stops.lt/vilnius/index.html#stop/1818,,
6475,,"Šaulių sąjunga",,54.70909,25.22607,https://www.stops.lt/vilnius/index.html#stop/1805,,
4990,,"Sietyno st.",,54.70037,25.22343,https://www.stops.lt/vilnius/index.html#stop/5166,,
5643,,"Sietyno st.",,54.69858,25.22124,https://www.stops.lt/vilnius/index.html#stop/5176,,
928,,"Spaudos rūmai",,54.70263,25.22377,https://www.stops.lt/vilnius/index.html#stop/1811,,
5722,,"Spaudos rūmai",,54.70417,25.22547,https://www.stops.lt/vilnius/index.html#stop/1809,,
5619,,"Viršuliškės",,54.70649,25.22676,https://www.stops.lt/vilnius/index.html#stop/1819,,
5620,,"Viršuliškės",,54.70683,25.22623,https://www.stops.lt/vilnius/index.html#stop/1808,,
6472,,"Viršuliškės",,54.70849,25.22674,https://www.stops.lt/vilnius/index.html#stop/1807,,
4991,,"Sietyno st.",,54.69967,25.22116,https://www.stops.lt/vilnius/index.html#stop/5167,,
7342,,"Sietyno st.",,54.69893,25.22087,https://www.stops.lt/vilnius/index.html#stop/5190,,
7415,,"Teodoro Narbuto st.",,54.70018,25.22967,https://www.stops.lt/vilnius/index.html#stop/1820,,
7416,,"Teodoro Narbuto st.",,54.69995,25.23016,https://www.stops.lt/vilnius/index.html#stop/1718,,
5613,,"Čiunės Sugiharos st.",,54.70510,25.23405,https://www.stops.lt/vilnius/index.html#stop/1816,,
5614,,"Čiunės Sugiharos st.",,54.70479,25.23527,https://www.stops.lt/vilnius/index.html#stop/1817,,
16691,,"Ąžuolyno st.",,54.70695,25.23769,https://www.stops.lt/vilnius/index.html#stop/1842,,
16692,,"Ąžuolyno st.",,54.70755,25.23795,https://www.stops.lt/vilnius/index.html#stop/1843,,
16386,,"Viršilų st.",,54.70330,25.21824,https://www.stops.lt/vilnius/index.html#stop/1841,,
16425,,"Inovacijų pramonės parkas",,54.75313,25.41540,https://www.stops.lt/vilnius/index.html#stop/3575,,
16424,,"Miškadvaris",,54.75380,25.41403,https://www.stops.lt/vilnius/index.html#stop/3574,,
16422,,"Vismaliukai",,54.75228,25.41632,https://www.stops.lt/vilnius/index.html#stop/3572,,
7941,,"Burbiškės",,54.66680,25.25275,https://www.stops.lt/vilnius/index.html#stop/2402,,
5546,,"Baldai",,54.65066,25.21825,https://www.stops.lt/vilnius/index.html#stop/2410,,
5588,,"Baldai",,54.64983,25.21614,https://www.stops.lt/vilnius/index.html#stop/2411,,
5587,,"Pakalniškių st.",,54.65416,25.22384,https://www.stops.lt/vilnius/index.html#stop/2409,,
857,,"Riovonys",,54.65967,25.23359,https://www.stops.lt/vilnius/index.html#stop/2406,,
5573,,"Riovonys",,54.65893,25.23233,https://www.stops.lt/vilnius/index.html#stop/2407,,
6851,,"Sausupio st.",,54.64722,25.21217,https://www.stops.lt/vilnius/index.html#stop/2412,,
5567,,"Vaduvos st.",,54.64487,25.20712,https://www.stops.lt/vilnius/index.html#stop/2414,,
6850,,"Vaduvos st.",,54.64438,25.20665,https://www.stops.lt/vilnius/index.html#stop/2415,,
5542,,"Vilkpėdės st.",,54.66478,25.23679,https://www.stops.lt/vilnius/index.html#stop/2404,,
5543,,"Vilkpėdės st.",,54.66331,25.23548,https://www.stops.lt/vilnius/index.html#stop/2405,,
5554,,"Žemieji Paneriai",,54.64608,25.20948,https://www.stops.lt/vilnius/index.html#stop/2413,,
7553,,"Jankiškių st.",,54.64537,25.19468,https://www.stops.lt/vilnius/index.html#stop/2422,,
7554,,"Jankiškių st.",,54.64506,25.19522,https://www.stops.lt/vilnius/index.html#stop/2423,,
5570,,"Šaltupio st.",,54.64676,25.19113,https://www.stops.lt/vilnius/index.html#stop/2419,,
5571,,"Šaltupio st.",,54.64734,25.19038,https://www.stops.lt/vilnius/index.html#stop/2420,,
1008,,"Titnago st.",,54.64970,25.18613,https://www.stops.lt/vilnius/index.html#stop/2421,,
5594,,"Ūmėdžių st.",,54.64262,25.20425,https://www.stops.lt/vilnius/index.html#stop/2416,,
1076,,"Valkininkų st.",,54.64372,25.20184,https://www.stops.lt/vilnius/index.html#stop/2418,,
5557,,"Valkininkų st.",,54.64406,25.20256,https://www.stops.lt/vilnius/index.html#stop/2417,,
9384,,"Pakalniškių st.",,54.65453,25.22513,https://www.stops.lt/vilnius/index.html#stop/2408,,
8374,,"Titnago st.",,54.65049,25.18459,https://www.stops.lt/vilnius/index.html#stop/2421a,,
8311,,"Vilkpėdės žiedas",,54.66563,25.24565,https://www.stops.lt/vilnius/index.html#stop/2424,,
8312,,"Vilkpėdės žiedas",,54.66575,25.24501,https://www.stops.lt/vilnius/index.html#stop/2425,,
5846,,"Jono Kazlausko st.",,54.72145,25.28502,https://www.stops.lt/vilnius/index.html#stop/2014,,
5848,,"Jono Kazlausko st.",,54.72241,25.28381,https://www.stops.lt/vilnius/index.html#stop/0801,,
5125,,"Kareivių st.",,54.71989,25.30161,https://www.stops.lt/vilnius/index.html#stop/0808,,
6873,,"Kareivių st.",,54.72062,25.30316,https://www.stops.lt/vilnius/index.html#stop/0812,,
5128,,"Pramogų arena",,54.71556,25.28943,https://www.stops.lt/vilnius/index.html#stop/0805,,
6846,,"Pramogų arena",,54.71504,25.28821,https://www.stops.lt/vilnius/index.html#stop/0804,,
5494,,"Valakampių tiltas",,54.72356,25.30725,https://www.stops.lt/vilnius/index.html#stop/0819,,
6874,,"Valakampių tiltas",,54.72409,25.30849,https://www.stops.lt/vilnius/index.html#stop/0820,,
5127,,"Verkių st.",,54.71687,25.29360,https://www.stops.lt/vilnius/index.html#stop/0807,,
6871,,"Verkių st.",,54.71732,25.29562,https://www.stops.lt/vilnius/index.html#stop/0806,,
5080,,"Licėjus",,54.71305,25.27899,https://www.stops.lt/vilnius/index.html#stop/0710,,
5131,,"Pramogų arena",,54.71508,25.28573,https://www.stops.lt/vilnius/index.html#stop/2015,,
7589,,"Povilo Lukšio st.",,54.71072,25.30239,https://www.stops.lt/vilnius/index.html#stop/0921,,
5013,,"Šiaurės miestelis",,54.71139,25.30392,https://www.stops.lt/vilnius/index.html#stop/0922,,
5022,,"Autobusų parkas",,54.72092,25.29589,https://www.stops.lt/vilnius/index.html#stop/5177,,
5147,,"Autobusų parkas",,54.72216,25.29669,https://www.stops.lt/vilnius/index.html#stop/0813,,
6847,,"Verkių st.",,54.71843,25.29553,https://www.stops.lt/vilnius/index.html#stop/0823,,
7691,,"Žalgirio st.",,54.70378,25.28221,https://www.stops.lt/vilnius/index.html#stop/0711,,
5086,,"Kareivių st.",,54.71859,25.30393,https://www.stops.lt/vilnius/index.html#stop/0810,,
6668,,"Kareivių st.",,54.71934,25.30356,https://www.stops.lt/vilnius/index.html#stop/0811,,
5508,,"Šaltinėlio st.",,54.72657,25.29674,https://www.stops.lt/vilnius/index.html#stop/0817,,
6671,,"Šaltinėlio st.",,54.72541,25.29826,https://www.stops.lt/vilnius/index.html#stop/0816,,
5505,,"Žirmūnų  žiedas",,54.72666,25.29710,https://www.stops.lt/vilnius/index.html#stop/0818,,
5149,,"Žirmūnų seniūnija",,54.72190,25.30071,https://www.stops.lt/vilnius/index.html#stop/0814,,
5154,,"Žirmūnų seniūnija",,54.72236,25.29994,https://www.stops.lt/vilnius/index.html#stop/0815,,
8463,,"Licėjus",,54.71314,25.27692,https://www.stops.lt/vilnius/index.html#stop/2016,,
15167,,"Povilo Lukšio st.",,54.71097,25.30067,https://www.stops.lt/vilnius/index.html#stop/0929,,
9565,,"Šiaurės miestelis",,54.71152,25.29786,https://www.stops.lt/vilnius/index.html#stop/0924,,
9566,,"Šiaurės miestelis",,54.71119,25.29938,https://www.stops.lt/vilnius/index.html#stop/0925,,
9637,,"Jono Galvydžio st.",,54.71183,25.29233,https://www.stops.lt/vilnius/index.html#stop/0926,,
9638,,"Ulonų st.",,54.70889,25.29121,https://www.stops.lt/vilnius/index.html#stop/0927,,
9640,,"Ulonų st.",,54.70921,25.29100,https://www.stops.lt/vilnius/index.html#stop/0928,,
15025,,"Autobusų parkas",,54.72236,25.29522,https://www.stops.lt/vilnius/index.html#stop/0831,,
7331,,"Žygio st.",,54.70460,25.28946,https://www.stops.lt/vilnius/index.html#stop/5187,,
7044,,"Apkasų st.",,54.70393,25.29270,https://www.stops.lt/vilnius/index.html#stop/0918,,
7045,,"Apkasų st.",,54.70394,25.29142,https://www.stops.lt/vilnius/index.html#stop/0917,,
7042,,"Minties st.",,54.70507,25.29864,https://www.stops.lt/vilnius/index.html#stop/0919,,
7043,,"Minties st.",,54.70506,25.29968,https://www.stops.lt/vilnius/index.html#stop/0920,,
7325,,"Herkaus Manto st.",,54.70110,25.28660,https://www.stops.lt/vilnius/index.html#stop/5185,,
7326,,"Herkaus Manto st.",,54.70068,25.28623,https://www.stops.lt/vilnius/index.html#stop/5186,,
7324,,"Rinktinės st.",,54.69508,25.28838,https://www.stops.lt/vilnius/index.html#stop/5184,,
7337,,"Rinktinės st.",,54.69506,25.28809,https://www.stops.lt/vilnius/index.html#stop/5188,,
7322,,"Žvejų st.",,54.69004,25.28870,https://www.stops.lt/vilnius/index.html#stop/5182,,
7323,,"Žvejų st.",,54.69170,25.28910,https://www.stops.lt/vilnius/index.html#stop/5183,,
5664,,"Rinktinės st.",,54.69497,25.28955,https://www.stops.lt/vilnius/index.html#stop/0907,,
5665,,"Rinktinės st.",,54.69477,25.28954,https://www.stops.lt/vilnius/index.html#stop/0111,,
5662,,"Šeimyniškių st.",,54.69566,25.29616,https://www.stops.lt/vilnius/index.html#stop/0908,,
6660,,"Šeimyniškių st.",,54.69556,25.29687,https://www.stops.lt/vilnius/index.html#stop/0112,,
1032,,"Mikalojaus Katkaus st.",,54.70078,25.29246,https://www.stops.lt/vilnius/index.html#stop/0912,,
6544,,"Mikalojaus Katkaus st.",,54.70009,25.29290,https://www.stops.lt/vilnius/index.html#stop/0911,,
6542,,"Trimitų st.",,54.70295,25.28893,https://www.stops.lt/vilnius/index.html#stop/0913,,
6546,,"Tuskulėnai",,54.69702,25.29706,https://www.stops.lt/vilnius/index.html#stop/0909,,
6547,,"Tuskulėnai",,54.69770,25.29670,https://www.stops.lt/vilnius/index.html#stop/0910,,
5658,,"Minties st.",,54.70362,25.30416,https://www.stops.lt/vilnius/index.html#stop/0904,,
6666,,"Minties st.",,54.70418,25.30454,https://www.stops.lt/vilnius/index.html#stop/0903,,
5088,,"Šiaurės miestelis",,54.71083,25.30465,https://www.stops.lt/vilnius/index.html#stop/0902,,
5606,,"Šiaurės miestelis",,54.71182,25.30509,https://www.stops.lt/vilnius/index.html#stop/0901,,
5661,,"Tuskulėnų rimties parkas",,54.69757,25.30032,https://www.stops.lt/vilnius/index.html#stop/0906,,
6665,,"Tuskulėnų rimties parkas",,54.69823,25.30130,https://www.stops.lt/vilnius/index.html#stop/0905,,
5087,,"Žirmūnai",,54.71595,25.30509,https://www.stops.lt/vilnius/index.html#stop/0822,,
6667,,"Žirmūnai",,54.71666,25.30545,https://www.stops.lt/vilnius/index.html#stop/0821,,
8001,,"Ąžuolų st.",,54.72050,25.19473,https://www.stops.lt/vilnius/index.html#stop/4414,,
8002,,"Ąžuolų st.",,54.72171,25.19339,https://www.stops.lt/vilnius/index.html#stop/4415,,
318,,"Zujūnai",,54.72671,25.18153,https://www.stops.lt/vilnius/index.html#stop/4406,,
7394,,"Zujūnai",,54.72662,25.18209,https://www.stops.lt/vilnius/index.html#stop/4410,,
7844,,"Senosios Gineitiškės",,54.73590,25.18928,https://www.stops.lt/vilnius/index.html#stop/4412,,
7845,,"Senosios Gineitiškės",,54.73565,25.19373,https://www.stops.lt/vilnius/index.html#stop/4413,,
7392,,"Antežeriai",,54.73377,25.18649,https://www.stops.lt/vilnius/index.html#stop/4408,,
7393,,"Antežeriai",,54.73255,25.18527,https://www.stops.lt/vilnius/index.html#stop/4409,,
16896,,"Garbės st.",,54.73051,25.18419,https://www.stops.lt/vilnius/index.html#stop/4416,,
16898,,"Garbės st.",,54.72982,25.18311,https://www.stops.lt/vilnius/index.html#stop/4419,,
5456,,"Saltoniškės",,54.70239,25.26438,https://www.stops.lt/vilnius/index.html#stop/0107,,
5533,,"Studentų st.",,54.69729,25.26327,https://www.stops.lt/vilnius/index.html#stop/0320,,
5534,,"Studentų st.",,54.69724,25.26430,https://www.stops.lt/vilnius/index.html#stop/0108,,
6436,,"Kęstučio st.",,54.69121,25.25158,https://www.stops.lt/vilnius/index.html#stop/0304,,
6437,,"Kęstučio st.",,54.68948,25.25190,https://www.stops.lt/vilnius/index.html#stop/0303,,
6434,,"Latvių st.",,54.69385,25.25072,https://www.stops.lt/vilnius/index.html#stop/0307,,
6435,,"Latvių st.",,54.69433,25.25075,https://www.stops.lt/vilnius/index.html#stop/0308,,
6433,,"Sėlių st.",,54.69744,25.24977,https://www.stops.lt/vilnius/index.html#stop/0311,,
5880,,"Liubarto tiltas",,54.68893,25.25691,https://www.stops.lt/vilnius/index.html#stop/0301,,
6438,,"Liubarto tiltas",,54.68908,25.25574,https://www.stops.lt/vilnius/index.html#stop/0302,,
6432,,"Sėlių st.",,54.69840,25.24868,https://www.stops.lt/vilnius/index.html#stop/0312,,
6430,,"Žvėrynas",,54.69872,25.24565,https://www.stops.lt/vilnius/index.html#stop/0313,,
4898,,"Žvėryno žiedas",,54.69846,25.24620,https://www.stops.lt/vilnius/index.html#stop/5151,,
814,,"Panorama",,54.69915,25.25704,https://www.stops.lt/vilnius/index.html#stop/0317,,
6396,,"Panorama",,54.69892,25.25607,https://www.stops.lt/vilnius/index.html#stop/0316,,
6397,,"Švietimo akademija",,54.69830,25.26121,https://www.stops.lt/vilnius/index.html#stop/0318,,
6404,,"Švietimo akademija",,54.69870,25.26133,https://www.stops.lt/vilnius/index.html#stop/0319,,
5906,,"Žvėrynas",,54.69948,25.24320,https://www.stops.lt/vilnius/index.html#stop/0315,,
6398,,"Žvėrynas",,54.69938,25.24499,https://www.stops.lt/vilnius/index.html#stop/0314,,
5220,,"Saltoniškės",,54.70123,25.26289,https://www.stops.lt/vilnius/index.html#stop/0321,,
5289,,"Saltoniškės",,54.70231,25.26185,https://www.stops.lt/vilnius/index.html#stop/1901,,
632,,"Džocharo Dudajevo skv.",,54.69583,25.25609,https://www.stops.lt/vilnius/index.html#stop/0309,,
5872,,"Džocharo Dudajevo skv.",,54.69585,25.25585,https://www.stops.lt/vilnius/index.html#stop/0310,,
1116,,"Vytauto st.",,54.69117,25.25643,https://www.stops.lt/vilnius/index.html#stop/0305,,
5875,,"Vytauto st.",,54.69173,25.25622,https://www.stops.lt/vilnius/index.html#stop/0306,,
5462,,"Linkmenų st.",,54.70453,25.27236,https://www.stops.lt/vilnius/index.html#stop/0702,,
5499,,"Linkmenų st.",,54.70487,25.26979,https://www.stops.lt/vilnius/index.html#stop/0701,,