stop_id,stop_name,stop_lat,stop_lon,stop_code,stop_desc,zone_id,stop_url,location_type,parent_station,wheelchair_boarding,stop_timezone,vehicle_type,platform_code
3913,Stankutiškės,54.620421,25.389962,,,3913,"http://www.visimarsrutai.lt/#/stop/result?stopId=3913",,,,,,
4751,Lyta,54.698099,25.493329,,,4751,"http://www.visimarsrutai.lt/#/stop/result?stopId=4751",,,,,,
4762,Bendorėliai,54.788411,25.194700,,,4762,"http://www.visimarsrutai.lt/#/stop/result?stopId=4762",,,,,,
4779,Nemėžis,54.640460,25.356377,,,4779,"http://www.visimarsrutai.lt/#/stop/result?stopId=4779",,,,,,
5006,Buivydiškės,54.716722,25.196594,,,5006,"http://www.visimarsrutai.lt/#/stop/result?stopId=5006",,,,,,
5730,Sodai,54.642422,25.346623,,,5730,"http://www.visimarsrutai.lt/#/stop/result?stopId=5730",,,,,,
5811,Gariūnai,54.655904,25.148668,,,5811,"http://www.visimarsrutai.lt/#/stop/result?stopId=5811",,,,,,
6187,Lentvaris,54.645209,25.052995,,,6187,"http://www.visimarsrutai.lt/#/stop/result?stopId=6187",,,,,,
9568,Sodai,54.642976,25.345727,,,9568,"http://www.visimarsrutai.lt/#/stop/result?stopId=9568",,,,,,
9695,Medelynas,54.750920,25.213828,,,9695,"http://www.visimarsrutai.lt/#/stop/result?stopId=9695",,,,,,
10568,Gariūnai,54.653070,25.154611,,,10568,"http://www.visimarsrutai.lt/#/stop/result?stopId=10568",,,,,,
11300,Rudamina,54.592643,25.339474,,,11300,"http://www.visimarsrutai.lt/#/stop/result?stopId=11300",,,,,,
11558,Nemėžis,54.639973,25.356876,,,11558,"http://www.visimarsrutai.lt/#/stop/result?stopId=11558",,,,,,
11800,Daržininkai,54.637208,25.368512,,,11800,"http://www.visimarsrutai.lt/#/stop/result?stopId=11800",,,,,,
11960,Kineliai,54.597299,25.316567,,,11960,"http://www.visimarsrutai.lt/#/stop/result?stopId=11960",,,,,,
12654,"Minsko plentas",54.644339,25.338696,,,12654,"http://www.visimarsrutai.lt/#/stop/result?stopId=12654",,,,,,
13362,Rudamina,54.591326,25.348213,,,13362,"http://www.visimarsrutai.lt/#/stop/result?stopId=13362",,,,,,
13563,"Kauno plentas",54.654177,25.150878,,,13563,"http://www.visimarsrutai.lt/#/stop/result?stopId=13563",,,,,,
14554,"Minsko plentas",54.645001,25.337425,,,14554,"http://www.visimarsrutai.lt/#/stop/result?stopId=14554",,,,,,
14561,Daržininkai,54.638035,25.366777,,,14561,"http://www.visimarsrutai.lt/#/stop/result?stopId=14561",,,,,,
14689,Posūkis,54.626416,25.393121,,,14689,"http://www.visimarsrutai.lt/#/stop/result?stopId=14689",,,,,,
15800,Buivydiškės,54.717307,25.196840,,,15800,"http://www.visimarsrutai.lt/#/stop/result?stopId=15800",,,,,,
16563,Posūkis,54.627263,25.392302,,,16563,"http://www.visimarsrutai.lt/#/stop/result?stopId=16563",,,,,,
16716,"Chemijos institutas",54.755080,25.261820,,,16716,"http://www.visimarsrutai.lt/#/stop/result?stopId=16716",,,,,,
16717,Miškas,54.783070,25.403160,,,16717,"http://www.visimarsrutai.lt/#/stop/result?stopId=16717",,,,,,
16718,Miškas,54.783330,25.404630,,,16718,"http://www.visimarsrutai.lt/#/stop/result?stopId=16718",,,,,,
16719,"Šilo tiltas",54.704470,25.310240,,,16719,"http://www.visimarsrutai.lt/#/stop/result?stopId=16719",,,,,,
16720,"Petro Vileišio st.",54.701650,25.309220,,,16720,"http://www.visimarsrutai.lt/#/stop/result?stopId=16720",,,,,,
16721,"Balžio st.",54.793030,25.429040,,,16721,"http://www.visimarsrutai.lt/#/stop/result?stopId=16721",,,,,,
16722,"Liudo Giros st.",54.733760,25.254210,,,16722,"http://www.visimarsrutai.lt/#/stop/result?stopId=16722",,,,,,
16723,"Liudo Giros st.",54.734000,25.253110,,,16723,"http://www.visimarsrutai.lt/#/stop/result?stopId=16723",,,,,,
16724,"Liudo Giros st.",54.733290,25.252100,,,16724,"http://www.visimarsrutai.lt/#/stop/result?stopId=16724",,,,,,
16725,"Grigaičių žiedas",54.664300,25.415550,,,16725,"http://www.visimarsrutai.lt/#/stop/result?stopId=16725",,,,,,
16726,Vaguva,54.747250,25.416870,,,16726,"http://www.visimarsrutai.lt/#/stop/result?stopId=16726",,,,,,
16727,"Liudo Giros st.",54.733130,25.253690,,,16727,"http://www.visimarsrutai.lt/#/stop/result?stopId=16727",,,,,,
16728,Vaguva,54.747110,25.417140,,,16728,"http://www.visimarsrutai.lt/#/stop/result?stopId=16728",,,,,,
16729,"Mykolo Romerio universitetas",54.735170,25.257950,,,16729,"http://www.visimarsrutai.lt/#/stop/result?stopId=16729",,,,,,
16730,"Mykolo Romerio universitetas",54.735310,25.259760,,,16730,"http://www.visimarsrutai.lt/#/stop/result?stopId=16730",,,,,,
16731,"Ateities st.",54.736300,25.266560,,,16731,"http://www.visimarsrutai.lt/#/stop/result?stopId=16731",,,,,,
16732,Pamiškė,54.729580,25.254520,,,16732,"http://www.visimarsrutai.lt/#/stop/result?stopId=16732",,,,,,
16733,"Ateities st.",54.737070,25.266720,,,16733,"http://www.visimarsrutai.lt/#/stop/result?stopId=16733",,,,,,
16734,Pamiškė,54.730410,25.254900,,,16734,"http://www.visimarsrutai.lt/#/stop/result?stopId=16734",,,,,,
16735,"Leono Sapiegos st.",54.696300,25.308090,,,16735,"http://www.visimarsrutai.lt/#/stop/result?stopId=16735",,,,,,
16736,"Sporto gimnazija",54.732990,25.244700,,,16736,"http://www.visimarsrutai.lt/#/stop/result?stopId=16736",,,,,,
16737,"Ateities st.",54.736820,25.265150,,,16737,"http://www.visimarsrutai.lt/#/stop/result?stopId=16737",,,,,,
16738,"Pijaus Žadeikos st.",54.735040,25.247530,,,16738,"http://www.visimarsrutai.lt/#/stop/result?stopId=16738",,,,,,
16739,"Pijaus Žadeikos st.",54.735520,25.246230,,,16739,"http://www.visimarsrutai.lt/#/stop/result?stopId=16739",,,,,,
16740,"Leono Sapiegos st.",54.696970,25.308730,,,16740,"http://www.visimarsrutai.lt/#/stop/result?stopId=16740",,,,,,
16741,"Pijaus Žadeikos st.",54.734900,25.246260,,,16741,"http://www.visimarsrutai.lt/#/stop/result?stopId=16741",,,,,,
16742,"Sietyno st.",54.700370,25.223430,,,16742,"http://www.visimarsrutai.lt/#/stop/result?stopId=16742",,,,,,
16743,"Sietyno st.",54.699670,25.221160,,,16743,"http://www.visimarsrutai.lt/#/stop/result?stopId=16743",,,,,,
16744,"Naujakiemio st.",54.724670,25.281140,,,16744,"http://www.visimarsrutai.lt/#/stop/result?stopId=16744",,,,,,
16745,"Gelvonų st.",54.717640,25.257630,,,16745,"http://www.visimarsrutai.lt/#/stop/result?stopId=16745",,,,,,
16746,"Juozo Tiškevičiaus st.",54.621980,25.112880,,,16746,"http://www.visimarsrutai.lt/#/stop/result?stopId=16746",,,,,,
16747,"Naujakiemio st.",54.723870,25.281440,,,16747,"http://www.visimarsrutai.lt/#/stop/result?stopId=16747",,,,,,
16748,"Gelvonų st.",54.718380,25.257670,,,16748,"http://www.visimarsrutai.lt/#/stop/result?stopId=16748",,,,,,
16749,"Simono Stanevičiaus st.",54.726100,25.254180,,,16749,"http://www.visimarsrutai.lt/#/stop/result?stopId=16749",,,,,,
16750,"Didlaukio st.",54.729030,25.269260,,,16750,"http://www.visimarsrutai.lt/#/stop/result?stopId=16750",,,,,,
16751,"Simono Stanevičiaus st.",54.725200,25.253720,,,16751,"http://www.visimarsrutai.lt/#/stop/result?stopId=16751",,,,,,
16752,Panorama,54.699150,25.257040,,,16752,"http://www.visimarsrutai.lt/#/stop/result?stopId=16752",,,,,,
16753,"Didlaukio st.",54.729150,25.271620,,,16753,"http://www.visimarsrutai.lt/#/stop/result?stopId=16753",,,,,,
16754,"Jovaro st.",54.722870,25.254070,,,16754,"http://www.visimarsrutai.lt/#/stop/result?stopId=16754",,,,,,
16755,Baltupiai,54.727580,25.278580,,,16755,"http://www.visimarsrutai.lt/#/stop/result?stopId=16755",,,,,,
16756,"Piliakalnio st.",54.699910,25.211750,,,16756,"http://www.visimarsrutai.lt/#/stop/result?stopId=16756",,,,,,
16758,"Jovaro st.",54.723840,25.253960,,,16758,"http://www.visimarsrutai.lt/#/stop/result?stopId=16758",,,,,,
16759,"Piliakalnio st.",54.699430,25.212480,,,16759,"http://www.visimarsrutai.lt/#/stop/result?stopId=16759",,,,,,
16760,"Medeinos st.",54.729670,25.219020,,,16760,"http://www.visimarsrutai.lt/#/stop/result?stopId=16760",,,,,,
16761,"Juozo Tiškevičiaus st.",54.621350,25.113290,,,16761,"http://www.visimarsrutai.lt/#/stop/result?stopId=16761",,,,,,
16762,"Paberžės st.",54.716160,25.254810,,,16762,"http://www.visimarsrutai.lt/#/stop/result?stopId=16762",,,,,,
16763,"Bistryčios st.",54.708400,25.330440,,,16763,"http://www.visimarsrutai.lt/#/stop/result?stopId=16763",,,,,,
16765,"Televizijos bokštas",54.690920,25.214860,,,16765,"http://www.visimarsrutai.lt/#/stop/result?stopId=16765",,,,,,
16766,"Skalvių st.",54.734710,25.220050,,,16766,"http://www.visimarsrutai.lt/#/stop/result?stopId=16766",,,,,,
16768,"Gelvonėlio st.",54.714430,25.256770,,,16768,"http://www.visimarsrutai.lt/#/stop/result?stopId=16768",,,,,,
16769,"Gelvonėlio st.",54.715050,25.257410,,,16769,"http://www.visimarsrutai.lt/#/stop/result?stopId=16769",,,,,,
16770,"Jono Kazlausko st.",54.721450,25.285020,,,16770,"http://www.visimarsrutai.lt/#/stop/result?stopId=16770",,,,,,
16771,"Trakų st.",54.680040,25.276280,,,16771,"http://www.visimarsrutai.lt/#/stop/result?stopId=16771",,,,,,
16772,"Šeškinės kalvos",54.710850,25.256220,,,16772,"http://www.visimarsrutai.lt/#/stop/result?stopId=16772",,,,,,
16774,"Jono Kazlausko st.",54.722410,25.283810,,,16774,"http://www.visimarsrutai.lt/#/stop/result?stopId=16774",,,,,,
16775,"Šiaurės miestelis",54.711820,25.305090,,,16775,"http://www.visimarsrutai.lt/#/stop/result?stopId=16775",,,,,,
16777,"Vytauto Andriaus Graičiūno st.",54.608140,25.160000,,,16777,"http://www.visimarsrutai.lt/#/stop/result?stopId=16777",,,,,,
16778,"Verslo st.",54.639330,25.259340,,,16778,"http://www.visimarsrutai.lt/#/stop/result?stopId=16778",,,,,,
16779,Viršuliškės,54.706830,25.226230,,,16779,"http://www.visimarsrutai.lt/#/stop/result?stopId=16779",,,,,,
16780,Strelčiukai,54.677900,25.396910,,,16780,"http://www.visimarsrutai.lt/#/stop/result?stopId=16780",,,,,,
16781,"Verslo st.",54.638980,25.258820,,,16781,"http://www.visimarsrutai.lt/#/stop/result?stopId=16781",,,,,,
16782,Strelčiukai,54.677830,25.398690,,,16782,"http://www.visimarsrutai.lt/#/stop/result?stopId=16782",,,,,,
16785,"Bistryčios st.",54.708390,25.329560,,,16785,"http://www.visimarsrutai.lt/#/stop/result?stopId=16785",,,,,,
16786,Pavilnys,54.671710,25.361780,,,16786,"http://www.visimarsrutai.lt/#/stop/result?stopId=16786",,,,,,
16787,"Paberžės st.",54.716170,25.253580,,,16787,"http://www.visimarsrutai.lt/#/stop/result?stopId=16787",,,,,,
16788,"Petro Vileišio st.",54.703130,25.310020,,,16788,"http://www.visimarsrutai.lt/#/stop/result?stopId=16788",,,,,,
16789,"Zarasų st.",54.676240,25.310400,,,16789,"http://www.visimarsrutai.lt/#/stop/result?stopId=16789",,,,,,
16790,"Zarasų st.",54.676580,25.309400,,,16790,"http://www.visimarsrutai.lt/#/stop/result?stopId=16790",,,,,,
16792,"Gamtininkų st.",54.674920,25.367520,,,16792,"http://www.visimarsrutai.lt/#/stop/result?stopId=16792",,,,,,
16794,"Vilnelės st.",54.674650,25.319480,,,16794,"http://www.visimarsrutai.lt/#/stop/result?stopId=16794",,,,,,
16795,"Gamtininkų st.",54.675010,25.368440,,,16795,"http://www.visimarsrutai.lt/#/stop/result?stopId=16795",,,,,,
16796,"Gilužio st.",54.704000,25.174380,,,16796,"http://www.visimarsrutai.lt/#/stop/result?stopId=16796",,,,,,
16797,"Hidrogeologijos st.",54.642950,25.262670,,,16797,"http://www.visimarsrutai.lt/#/stop/result?stopId=16797",,,,,,
16798,"Vilnelės st.",54.674900,25.318790,,,16798,"http://www.visimarsrutai.lt/#/stop/result?stopId=16798",,,,,,
16799,Alėja,54.677210,25.382910,,,16799,"http://www.visimarsrutai.lt/#/stop/result?stopId=16799",,,,,,
16800,"Hidrogeologijos st.",54.643440,25.263210,,,16800,"http://www.visimarsrutai.lt/#/stop/result?stopId=16800",,,,,,
16801,Alėja,54.677180,25.384280,,,16801,"http://www.visimarsrutai.lt/#/stop/result?stopId=16801",,,,,,
16802,"Klinikų st.",54.711610,25.315730,,,16802,"http://www.visimarsrutai.lt/#/stop/result?stopId=16802",,,,,,
16803,"Džocharo Dudajevo skv.",54.695850,25.255850,,,16803,"http://www.visimarsrutai.lt/#/stop/result?stopId=16803",,,,,,
16805,"Mikalojaus Katkaus st.",54.700780,25.292460,,,16805,"http://www.visimarsrutai.lt/#/stop/result?stopId=16805",,,,,,
16806,"Pūčkorių atodanga",54.691590,25.360100,,,16806,"http://www.visimarsrutai.lt/#/stop/result?stopId=16806",,,,,,
16807,Turniškės,54.745120,25.327530,,,16807,"http://www.visimarsrutai.lt/#/stop/result?stopId=16807",,,,,,
16808,"Salomėjos Nėries st.",54.737290,25.232450,,,16808,"http://www.visimarsrutai.lt/#/stop/result?stopId=16808",,,,,,
16809,Antakalnis,54.721060,25.318210,,,16809,"http://www.visimarsrutai.lt/#/stop/result?stopId=16809",,,,,,
16810,"Krivių st.",54.688020,25.305310,,,16810,"http://www.visimarsrutai.lt/#/stop/result?stopId=16810",,,,,,
16811,Bireliai,54.821180,25.320660,,,16811,"http://www.visimarsrutai.lt/#/stop/result?stopId=16811",,,,,,
16812,"Vilniaus universitetas",54.724890,25.331340,,,16812,"http://www.visimarsrutai.lt/#/stop/result?stopId=16812",,,,,,
16813,"Karaliaus Mindaugo tiltas",54.688580,25.287410,,,16813,"http://www.visimarsrutai.lt/#/stop/result?stopId=16813",,,,,,
16814,"Emilijos Pliaterytės st.",54.617620,25.116570,,,16814,"http://www.visimarsrutai.lt/#/stop/result?stopId=16814",,,,,,
16815,"Dieveniškių st.",54.634070,25.248800,,,16815,"http://www.visimarsrutai.lt/#/stop/result?stopId=16815",,,,,,
16816,"Aušros vartai",54.673680,25.289490,,,16816,"http://www.visimarsrutai.lt/#/stop/result?stopId=16816",,,,,,
16817,"Dieveniškių st.",54.633830,25.249330,,,16817,"http://www.visimarsrutai.lt/#/stop/result?stopId=16817",,,,,,
16819,Užusienis,54.632980,25.239430,,,16819,"http://www.visimarsrutai.lt/#/stop/result?stopId=16819",,,,,,
16820,"Emilijos Pliaterytės st.",54.617000,25.116740,,,16820,"http://www.visimarsrutai.lt/#/stop/result?stopId=16820",,,,,,
16821,"Liubarto tiltas",54.688930,25.256910,,,16821,"http://www.visimarsrutai.lt/#/stop/result?stopId=16821",,,,,,
16822,"Jokūbo Jasinskio st.",54.688120,25.263290,,,16822,"http://www.visimarsrutai.lt/#/stop/result?stopId=16822",,,,,,
16823,"Rodūnios kelias",54.641680,25.277890,,,16823,"http://www.visimarsrutai.lt/#/stop/result?stopId=16823",,,,,,
16824,"Kelmijos sodai",54.608280,25.243820,,,16824,"http://www.visimarsrutai.lt/#/stop/result?stopId=16824",,,,,,
16825,"Tremtinių st.",54.692900,25.409810,,,16825,"http://www.visimarsrutai.lt/#/stop/result?stopId=16825",,,,,,
16826,"Kelmijos sodai",54.607890,25.244040,,,16826,"http://www.visimarsrutai.lt/#/stop/result?stopId=16826",,,,,,
16827,"Ukmergės st.",54.713280,25.251660,,,16827,"http://www.visimarsrutai.lt/#/stop/result?stopId=16827",,,,,,
16828,"Ašmenėlės st.",54.660280,25.355590,,,16828,"http://www.visimarsrutai.lt/#/stop/result?stopId=16828",,,,,,
16829,"Lelijų st.",54.689730,25.401040,,,16829,"http://www.visimarsrutai.lt/#/stop/result?stopId=16829",,,,,,
16830,"Ašmenėlės st.",54.660350,25.355360,,,16830,"http://www.visimarsrutai.lt/#/stop/result?stopId=16830",,,,,,
16831,"Ukmergės st.",54.712450,25.249740,,,16831,"http://www.visimarsrutai.lt/#/stop/result?stopId=16831",,,,,,
16832,"Tverečiaus st.",54.716190,25.316460,,,16832,"http://www.visimarsrutai.lt/#/stop/result?stopId=16832",,,,,,
16833,"Liudviko Zamenhofo st.",54.741060,25.228890,,,16833,"http://www.visimarsrutai.lt/#/stop/result?stopId=16833",,,,,,
16834,Pūčkoriai,54.691450,25.366410,,,16834,"http://www.visimarsrutai.lt/#/stop/result?stopId=16834",,,,,,
16835,"Rygos st.",54.715750,25.232110,,,16835,"http://www.visimarsrutai.lt/#/stop/result?stopId=16835",,,,,,
16836,"Eišiškių sodai",54.626250,25.249470,,,16836,"http://www.visimarsrutai.lt/#/stop/result?stopId=16836",,,,,,
16837,"Salomėjos Nėries st.",54.738170,25.231750,,,16837,"http://www.visimarsrutai.lt/#/stop/result?stopId=16837",,,,,,
16838,Pūčkoriai,54.691120,25.367300,,,16838,"http://www.visimarsrutai.lt/#/stop/result?stopId=16838",,,,,,
16839,"Eišiškių sodai",54.627400,25.249540,,,16839,"http://www.visimarsrutai.lt/#/stop/result?stopId=16839",,,,,,
16840,"Vytauto st.",54.691730,25.256220,,,16840,"http://www.visimarsrutai.lt/#/stop/result?stopId=16840",,,,,,
16841,"Stepono Batoro st.",54.693120,25.378960,,,16841,"http://www.visimarsrutai.lt/#/stop/result?stopId=16841",,,,,,
16843,Riovonys,54.659670,25.233590,,,16843,"http://www.visimarsrutai.lt/#/stop/result?stopId=16843",,,,,,
16844,"Klinikų st.",54.711340,25.316690,,,16844,"http://www.visimarsrutai.lt/#/stop/result?stopId=16844",,,,,,
16845,"Kinologijos centras",54.648780,25.321310,,,16845,"http://www.visimarsrutai.lt/#/stop/result?stopId=16845",,,,,,
16846,"Kinologijos centras",54.649250,25.320530,,,16846,"http://www.visimarsrutai.lt/#/stop/result?stopId=16846",,,,,,
16848,"Stepono Batoro st.",54.693170,25.378020,,,16848,"http://www.visimarsrutai.lt/#/stop/result?stopId=16848",,,,,,
16849,Ąžuolijai,54.620260,25.244550,,,16849,"http://www.visimarsrutai.lt/#/stop/result?stopId=16849",,,,,,
16850,"Rodūnios kelias",54.641850,25.277710,,,16850,"http://www.visimarsrutai.lt/#/stop/result?stopId=16850",,,,,,
16851,"Lelijų st.",54.689490,25.400210,,,16851,"http://www.visimarsrutai.lt/#/stop/result?stopId=16851",,,,,,
16852,"Bernardinų sodas",54.684970,25.291100,,,16852,"http://www.visimarsrutai.lt/#/stop/result?stopId=16852",,,,,,
16854,Karoliniškės,54.692440,25.216310,,,16854,"http://www.visimarsrutai.lt/#/stop/result?stopId=16854",,,,,,
16855,"Bernardinų sodas",54.684720,25.290250,,,16855,"http://www.visimarsrutai.lt/#/stop/result?stopId=16855",,,,,,
16857,"Žemieji Pagiriai",54.581500,25.204420,,,16857,"http://www.visimarsrutai.lt/#/stop/result?stopId=16857",,,,,,
16858,"Vaikų ligoninė",54.755510,25.280540,,,16858,"http://www.visimarsrutai.lt/#/stop/result?stopId=16858",,,,,,
16859,"Dailės akademija",54.684010,25.292870,,,16859,"http://www.visimarsrutai.lt/#/stop/result?stopId=16859",,,,,,
16860,"Pramonės st.",54.694480,25.418650,,,16860,"http://www.visimarsrutai.lt/#/stop/result?stopId=16860",,,,,,
16861,"Žemieji Pagiriai",54.582720,25.206090,,,16861,"http://www.visimarsrutai.lt/#/stop/result?stopId=16861",,,,,,
16862,"Santariškių žiedas",54.763700,25.282150,,,16862,"http://www.visimarsrutai.lt/#/stop/result?stopId=16862",,,,,,
16863,"Vinco Kudirkos aikštė",54.688710,25.279820,,,16863,"http://www.visimarsrutai.lt/#/stop/result?stopId=16863",,,,,,
16864,"Skaistės st.",54.605730,25.393160,,,16864,"http://www.visimarsrutai.lt/#/stop/result?stopId=16864",,,,,,
16865,Raisteliai,54.611390,25.218120,,,16865,"http://www.visimarsrutai.lt/#/stop/result?stopId=16865",,,,,,
16866,"Sietyno st.",54.698580,25.221240,,,16866,"http://www.visimarsrutai.lt/#/stop/result?stopId=16866",,,,,,
16867,"Pūčkorių atodanga",54.691930,25.359510,,,16867,"http://www.visimarsrutai.lt/#/stop/result?stopId=16867",,,,,,
16868,Raisteliai,54.611230,25.217610,,,16868,"http://www.visimarsrutai.lt/#/stop/result?stopId=16868",,,,,,
16869,"Švitrigailos st.",54.674240,25.267920,,,16869,"http://www.visimarsrutai.lt/#/stop/result?stopId=16869",,,,,,
16870,"Pramonės st.",54.694350,25.418070,,,16870,"http://www.visimarsrutai.lt/#/stop/result?stopId=16870",,,,,,
16871,"Laisvės prospektas",54.696350,25.219920,,,16871,"http://www.visimarsrutai.lt/#/stop/result?stopId=16871",,,,,,
16872,"Durpių st.",54.596570,25.204560,,,16872,"http://www.visimarsrutai.lt/#/stop/result?stopId=16872",,,,,,
16873,"Muzikų st.",54.759210,25.281570,,,16873,"http://www.visimarsrutai.lt/#/stop/result?stopId=16873",,,,,,
16874,"Juozo Tumo-Vaižganto st.",54.689580,25.269220,,,16874,"http://www.visimarsrutai.lt/#/stop/result?stopId=16874",,,,,,
16875,"Neries st.",54.695630,25.428690,,,16875,"http://www.visimarsrutai.lt/#/stop/result?stopId=16875",,,,,,
16876,"Durpių st.",54.595820,25.204940,,,16876,"http://www.visimarsrutai.lt/#/stop/result?stopId=16876",,,,,,
16877,"Vytenio st.",54.671850,25.262330,,,16877,"http://www.visimarsrutai.lt/#/stop/result?stopId=16877",,,,,,
16878,"Santariškių žiedas",54.763590,25.282520,,,16878,"http://www.visimarsrutai.lt/#/stop/result?stopId=16878",,,,,,
16879,"Neries st.",54.695720,25.429390,,,16879,"http://www.visimarsrutai.lt/#/stop/result?stopId=16879",,,,,,
16880,"Muzikų st.",54.758320,25.281030,,,16880,"http://www.visimarsrutai.lt/#/stop/result?stopId=16880",,,,,,
16881,"Justiniškių žiedas",54.709330,25.213340,,,16881,"http://www.visimarsrutai.lt/#/stop/result?stopId=16881",,,,,,
16882,"Sodų st.",54.724090,25.187890,,,16882,"http://www.visimarsrutai.lt/#/stop/result?stopId=16882",,,,,,
16883,"Šiaurinė st.",54.715540,25.215110,,,16883,"http://www.visimarsrutai.lt/#/stop/result?stopId=16883",,,,,,
16884,"Gervėčių st.",54.673900,25.299230,,,16884,"http://www.visimarsrutai.lt/#/stop/result?stopId=16884",,,,,,
16885,"Tuskulėnų rimties parkas",54.697570,25.300320,,,16885,"http://www.visimarsrutai.lt/#/stop/result?stopId=16885",,,,,,
16886,"Šiaurinė st.",54.714970,25.214860,,,16886,"http://www.visimarsrutai.lt/#/stop/result?stopId=16886",,,,,,
16887,"Šeimyniškių st.",54.695660,25.296160,,,16887,"http://www.visimarsrutai.lt/#/stop/result?stopId=16887",,,,,,
16888,"Atžalyno st.",54.718260,25.214130,,,16888,"http://www.visimarsrutai.lt/#/stop/result?stopId=16888",,,,,,
16889,"Mildos st.",54.691620,25.343370,,,16889,"http://www.visimarsrutai.lt/#/stop/result?stopId=16889",,,,,,
16890,"Sodų st.",54.724270,25.187170,,,16890,"http://www.visimarsrutai.lt/#/stop/result?stopId=16890",,,,,,
16891,"Gervėčių st.",54.673650,25.297570,,,16891,"http://www.visimarsrutai.lt/#/stop/result?stopId=16891",,,,,,
16892,"Rinktinės st.",54.694970,25.289550,,,16892,"http://www.visimarsrutai.lt/#/stop/result?stopId=16892",,,,,,
16893,"Vaikų darželis",54.762560,25.335630,,,16893,"http://www.visimarsrutai.lt/#/stop/result?stopId=16893",,,,,,
16894,"Džocharo Dudajevo skv.",54.695830,25.256090,,,16894,"http://www.visimarsrutai.lt/#/stop/result?stopId=16894",,,,,,
16895,Pagiriai,54.577160,25.198290,,,16895,"http://www.visimarsrutai.lt/#/stop/result?stopId=16895",,,,,,
16897,"Tvenkinių st.",54.710650,25.200820,,,16897,"http://www.visimarsrutai.lt/#/stop/result?stopId=16897",,,,,,
16898,"Naugarduko st.",54.670420,25.259850,,,16898,"http://www.visimarsrutai.lt/#/stop/result?stopId=16898",,,,,,
16899,"Tvenkinių st.",54.711040,25.200660,,,16899,"http://www.visimarsrutai.lt/#/stop/result?stopId=16899",,,,,,
16900,"Televizijos bokštas",54.689960,25.212600,,,16900,"http://www.visimarsrutai.lt/#/stop/result?stopId=16900",,,,,,
16901,"Dūmų st.",54.693180,25.400360,,,16901,"http://www.visimarsrutai.lt/#/stop/result?stopId=16901",,,,,,
16904,Bukčiai,54.655010,25.195630,,,16904,"http://www.visimarsrutai.lt/#/stop/result?stopId=16904",,,,,,
16905,"Minties st.",54.703620,25.304160,,,16905,"http://www.visimarsrutai.lt/#/stop/result?stopId=16905",,,,,,
16906,"Alberto Kojelavičiaus st.",54.695160,25.395700,,,16906,"http://www.visimarsrutai.lt/#/stop/result?stopId=16906",,,,,,
16908,"Akacijų st.",54.677920,25.201810,,,16908,"http://www.visimarsrutai.lt/#/stop/result?stopId=16908",,,,,,
16910,"Gėlių st.",54.674240,25.283660,,,16910,"http://www.visimarsrutai.lt/#/stop/result?stopId=16910",,,,,,
16912,"Reformatų st.",54.681490,25.277400,,,16912,"http://www.visimarsrutai.lt/#/stop/result?stopId=16912",,,,,,
16913,"Savanorių prospektas",54.674030,25.248600,,,16913,"http://www.visimarsrutai.lt/#/stop/result?stopId=16913",,,,,,
16914,"Sporto gimnazija",54.731610,25.242410,,,16914,"http://www.visimarsrutai.lt/#/stop/result?stopId=16914",,,,,,
16915,"Savanorių prospektas",54.673400,25.247000,,,16915,"http://www.visimarsrutai.lt/#/stop/result?stopId=16915",,,,,,
16916,"Valkininkų st.",54.643720,25.201840,,,16916,"http://www.visimarsrutai.lt/#/stop/result?stopId=16916",,,,,,
16917,"Vaivorykštės st.",54.685190,25.207660,,,16917,"http://www.visimarsrutai.lt/#/stop/result?stopId=16917",,,,,,
16918,„Lelija“,54.669670,25.267110,,,16918,"http://www.visimarsrutai.lt/#/stop/result?stopId=16918",,,,,,
16919,"Vaikų kaimas",54.708770,25.241180,,,16919,"http://www.visimarsrutai.lt/#/stop/result?stopId=16919",,,,,,
16921,Šaudykla,54.688990,25.330660,,,16921,"http://www.visimarsrutai.lt/#/stop/result?stopId=16921",,,,,,
16922,Pilaitė,54.700950,25.205420,,,16922,"http://www.visimarsrutai.lt/#/stop/result?stopId=16922",,,,,,
16923,"Rinktinės st.",54.694770,25.289540,,,16923,"http://www.visimarsrutai.lt/#/stop/result?stopId=16923",,,,,,
16924,"Senosios Gineitiškės",54.735900,25.189280,,,16924,"http://www.visimarsrutai.lt/#/stop/result?stopId=16924",,,,,,
16926,"Rudens st.",54.685990,25.323580,,,16926,"http://www.visimarsrutai.lt/#/stop/result?stopId=16926",,,,,,
16927,"Lvovo st.",54.694480,25.282760,,,16927,"http://www.visimarsrutai.lt/#/stop/result?stopId=16927",,,,,,
16929,Belmontas,54.683790,25.319400,,,16929,"http://www.visimarsrutai.lt/#/stop/result?stopId=16929",,,,,,
16931,"Vaivorykštės st.",54.684300,25.206950,,,16931,"http://www.visimarsrutai.lt/#/stop/result?stopId=16931",,,,,,
16932,"Skalvių st.",54.734550,25.219630,,,16932,"http://www.visimarsrutai.lt/#/stop/result?stopId=16932",,,,,,
16933,"Dailės akademija",54.682120,25.292970,,,16933,"http://www.visimarsrutai.lt/#/stop/result?stopId=16933",,,,,,
16934,"Senosios Gineitiškės",54.735650,25.193730,,,16934,"http://www.visimarsrutai.lt/#/stop/result?stopId=16934",,,,,,
16935,"Misionierių st.",54.676620,25.296520,,,16935,"http://www.visimarsrutai.lt/#/stop/result?stopId=16935",,,,,,
16936,"Ateities st.",54.737500,25.265840,,,16936,"http://www.visimarsrutai.lt/#/stop/result?stopId=16936",,,,,,
16937,Naujininkai,54.662750,25.274180,,,16937,"http://www.visimarsrutai.lt/#/stop/result?stopId=16937",,,,,,
16938,"Gedvydžių st.",54.734130,25.234200,,,16938,"http://www.visimarsrutai.lt/#/stop/result?stopId=16938",,,,,,
16939,"Maumedžių st.",54.741080,25.264370,,,16939,"http://www.visimarsrutai.lt/#/stop/result?stopId=16939",,,,,,
16941,"Maumedžių st.",54.740650,25.264360,,,16941,"http://www.visimarsrutai.lt/#/stop/result?stopId=16941",,,,,,
16942,Santariškės,54.752860,25.280310,,,16942,"http://www.visimarsrutai.lt/#/stop/result?stopId=16942",,,,,,
16944,"Dariaus ir Girėno st.",54.647550,25.273180,,,16944,"http://www.visimarsrutai.lt/#/stop/result?stopId=16944",,,,,,
16947,"Juliaus Juzeliūno st.",54.729180,25.235680,,,16947,"http://www.visimarsrutai.lt/#/stop/result?stopId=16947",,,,,,
16948,"Žemynos st.",54.725760,25.233440,,,16948,"http://www.visimarsrutai.lt/#/stop/result?stopId=16948",,,,,,
16949,Santariškės,54.752000,25.279790,,,16949,"http://www.visimarsrutai.lt/#/stop/result?stopId=16949",,,,,,
16950,Raudonbalė,54.749390,25.180960,,,16950,"http://www.visimarsrutai.lt/#/stop/result?stopId=16950",,,,,,
16951,"Šviesos st.",54.669450,25.096720,,,16951,"http://www.visimarsrutai.lt/#/stop/result?stopId=16951",,,,,,
16953,"Žaliųjų Ežerų st.",54.750620,25.279820,,,16953,"http://www.visimarsrutai.lt/#/stop/result?stopId=16953",,,,,,
16954,"Šalnos st.",54.672810,25.207030,,,16954,"http://www.visimarsrutai.lt/#/stop/result?stopId=16954",,,,,,
16956,"Šalnos st.",54.673070,25.206070,,,16956,"http://www.visimarsrutai.lt/#/stop/result?stopId=16956",,,,,,
16957,"Igno Šeiniaus st.",54.721790,25.243530,,,16957,"http://www.visimarsrutai.lt/#/stop/result?stopId=16957",,,,,,
16958,"Architektų st.",54.673430,25.214510,,,16958,"http://www.visimarsrutai.lt/#/stop/result?stopId=16958",,,,,,
16959,"Architektų st.",54.673130,25.213390,,,16959,"http://www.visimarsrutai.lt/#/stop/result?stopId=16959",,,,,,
16961,"Trimitų st.",54.702950,25.288930,,,16961,"http://www.visimarsrutai.lt/#/stop/result?stopId=16961",,,,,,
16963,"Ukmergės st.",54.711940,25.249420,,,16963,"http://www.visimarsrutai.lt/#/stop/result?stopId=16963",,,,,,
16964,"Mikalojaus Katkaus st.",54.700090,25.292900,,,16964,"http://www.visimarsrutai.lt/#/stop/result?stopId=16964",,,,,,
16965,Kuprioniškės,54.641040,25.331630,,,16965,"http://www.visimarsrutai.lt/#/stop/result?stopId=16965",,,,,,
16966,"Riešutų st.",54.676530,25.216110,,,16966,"http://www.visimarsrutai.lt/#/stop/result?stopId=16966",,,,,,
16967,"Mokyklos st.",54.746290,25.263750,,,16967,"http://www.visimarsrutai.lt/#/stop/result?stopId=16967",,,,,,
16968,"Mokyklos st.",54.745350,25.263380,,,16968,"http://www.visimarsrutai.lt/#/stop/result?stopId=16968",,,,,,
16969,Dvarčionys,54.729720,25.370520,,,16969,"http://www.visimarsrutai.lt/#/stop/result?stopId=16969",,,,,,
16970,"Akademijos st.",54.752620,25.270660,,,16970,"http://www.visimarsrutai.lt/#/stop/result?stopId=16970",,,,,,
16971,"Musninkų st.",54.716900,25.244840,,,16971,"http://www.visimarsrutai.lt/#/stop/result?stopId=16971",,,,,,
16972,"Musninkų st.",54.716620,25.244520,,,16972,"http://www.visimarsrutai.lt/#/stop/result?stopId=16972",,,,,,
16973,"Vaikų ligoninė",54.756130,25.280850,,,16973,"http://www.visimarsrutai.lt/#/stop/result?stopId=16973",,,,,,
16974,"Dūkštų st.",54.715000,25.246380,,,16974,"http://www.visimarsrutai.lt/#/stop/result?stopId=16974",,,,,,
16977,"Linkmenų st.",54.704530,25.272360,,,16977,"http://www.visimarsrutai.lt/#/stop/result?stopId=16977",,,,,,
16979,Vandenvala,54.665340,25.173800,,,16979,"http://www.visimarsrutai.lt/#/stop/result?stopId=16979",,,,,,
16982,"Lvovo st.",54.694570,25.283870,,,16982,"http://www.visimarsrutai.lt/#/stop/result?stopId=16982",,,,,,
16983,"Riešutų st.",54.676000,25.215560,,,16983,"http://www.visimarsrutai.lt/#/stop/result?stopId=16983",,,,,,
16984,"Erfurto st.",54.673630,25.201140,,,16984,"http://www.visimarsrutai.lt/#/stop/result?stopId=16984",,,,,,
16985,Šeškinė,54.709630,25.251570,,,16985,"http://www.visimarsrutai.lt/#/stop/result?stopId=16985",,,,,,
16986,"Žalgirio st.",54.704360,25.284340,,,16986,"http://www.visimarsrutai.lt/#/stop/result?stopId=16986",,,,,,
16987,Tuskulėnai,54.697020,25.297060,,,16987,"http://www.visimarsrutai.lt/#/stop/result?stopId=16987",,,,,,
16989,"Riaubonių st.",54.755260,25.232940,,,16989,"http://www.visimarsrutai.lt/#/stop/result?stopId=16989",,,,,,
16990,"Jogailos st.",54.685260,25.278210,,,16990,"http://www.visimarsrutai.lt/#/stop/result?stopId=16990",,,,,,
16991,Tuskulėnai,54.697700,25.296700,,,16991,"http://www.visimarsrutai.lt/#/stop/result?stopId=16991",,,,,,
16993,Vandenvala,54.665390,25.173110,,,16993,"http://www.visimarsrutai.lt/#/stop/result?stopId=16993",,,,,,
16994,"Lazdynų seniūnija",54.674730,25.202580,,,16994,"http://www.visimarsrutai.lt/#/stop/result?stopId=16994",,,,,,
16995,"Polocko kryptis",54.692370,25.460020,,,16995,"http://www.visimarsrutai.lt/#/stop/result?stopId=16995",,,,,,
16996,"Lizdeikos st.",54.727280,25.315520,,,16996,"http://www.visimarsrutai.lt/#/stop/result?stopId=16996",,,,,,
16998,"Vasaros st.",54.691220,25.305030,,,16998,"http://www.visimarsrutai.lt/#/stop/result?stopId=16998",,,,,,
16999,Viktariškės,54.693460,25.480620,,,16999,"http://www.visimarsrutai.lt/#/stop/result?stopId=16999",,,,,,
17000,"Igno Šeiniaus st.",54.721460,25.244260,,,17000,"http://www.visimarsrutai.lt/#/stop/result?stopId=17000",,,,,,
17001,"Jurgio Baltrušaičio st.",54.729340,25.238920,,,17001,"http://www.visimarsrutai.lt/#/stop/result?stopId=17001",,,,,,
17002,"Vasaros st.",54.691300,25.304710,,,17002,"http://www.visimarsrutai.lt/#/stop/result?stopId=17002",,,,,,
17003,"Polocko kryptis",54.692590,25.459390,,,17003,"http://www.visimarsrutai.lt/#/stop/result?stopId=17003",,,,,,
17004,"Mikalojaus Konstantino Čiurlionio st.",54.681600,25.264710,,,17004,"http://www.visimarsrutai.lt/#/stop/result?stopId=17004",,,,,,
17005,Markučiai,54.674300,25.322680,,,17005,"http://www.visimarsrutai.lt/#/stop/result?stopId=17005",,,,,,
17006,"Medeinos st.",54.728710,25.218150,,,17006,"http://www.visimarsrutai.lt/#/stop/result?stopId=17006",,,,,,
17007,Fabijoniškės,54.731450,25.237390,,,17007,"http://www.visimarsrutai.lt/#/stop/result?stopId=17007",,,,,,
17008,"Žalgirio st.",54.703080,25.283530,,,17008,"http://www.visimarsrutai.lt/#/stop/result?stopId=17008",,,,,,
17009,"Filaretų st.",54.685320,25.308530,,,17009,"http://www.visimarsrutai.lt/#/stop/result?stopId=17009",,,,,,
17010,"Verkių rūmai",54.752240,25.295990,,,17010,"http://www.visimarsrutai.lt/#/stop/result?stopId=17010",,,,,,
17011,Lazdynai,54.677610,25.212590,,,17011,"http://www.visimarsrutai.lt/#/stop/result?stopId=17011",,,,,,
17012,"Tauragnų st.",54.712340,25.286720,,,17012,"http://www.visimarsrutai.lt/#/stop/result?stopId=17012",,,,,,
17013,"Žėručio st.",54.676420,25.206960,,,17013,"http://www.visimarsrutai.lt/#/stop/result?stopId=17013",,,,,,
17014,Lazdynai,54.677780,25.212330,,,17014,"http://www.visimarsrutai.lt/#/stop/result?stopId=17014",,,,,,
17015,"Filaretų st.",54.684730,25.309170,,,17015,"http://www.visimarsrutai.lt/#/stop/result?stopId=17015",,,,,,
17017,"Antakalnio žiedas",54.722320,25.318870,,,17017,"http://www.visimarsrutai.lt/#/stop/result?stopId=17017",,,,,,
17018,"Kalnų parkas",54.689650,25.295810,,,17018,"http://www.visimarsrutai.lt/#/stop/result?stopId=17018",,,,,,
17019,"Paukščių takas",54.679800,25.207340,,,17019,"http://www.visimarsrutai.lt/#/stop/result?stopId=17019",,,,,,
17020,"Polocko st.",54.683310,25.312860,,,17020,"http://www.visimarsrutai.lt/#/stop/result?stopId=17020",,,,,,
17022,LITEXPO,54.675770,25.221860,,,17022,"http://www.visimarsrutai.lt/#/stop/result?stopId=17022",,,,,,
17023,"Žaliasis tiltas",54.692340,25.280030,,,17023,"http://www.visimarsrutai.lt/#/stop/result?stopId=17023",,,,,,
17025,"Polocko st.",54.682700,25.312660,,,17025,"http://www.visimarsrutai.lt/#/stop/result?stopId=17025",,,,,,
17026,"Žaliasis tiltas",54.692360,25.280480,,,17026,"http://www.visimarsrutai.lt/#/stop/result?stopId=17026",,,,,,
17027,"Kirtimų geležinkelio stotis",54.629530,25.272200,,,17027,"http://www.visimarsrutai.lt/#/stop/result?stopId=17027",,,,,,
17028,Galgiai,54.720310,25.411330,,,17028,"http://www.visimarsrutai.lt/#/stop/result?stopId=17028",,,,,,
17029,"Krivių st.",54.687300,25.305620,,,17029,"http://www.visimarsrutai.lt/#/stop/result?stopId=17029",,,,,,
17030,Lyta,54.698520,25.494680,,,17030,"http://www.visimarsrutai.lt/#/stop/result?stopId=17030",,,,,,
17031,"Teodoro Narbuto st.",54.700180,25.229670,,,17031,"http://www.visimarsrutai.lt/#/stop/result?stopId=17031",,,,,,
17032,Naujininkai,54.662370,25.274090,,,17032,"http://www.visimarsrutai.lt/#/stop/result?stopId=17032",,,,,,
17033,"Juliaus Juzeliūno st.",54.730540,25.235040,,,17033,"http://www.visimarsrutai.lt/#/stop/result?stopId=17033",,,,,,
17034,Viktariškės,54.692990,25.477630,,,17034,"http://www.visimarsrutai.lt/#/stop/result?stopId=17034",,,,,,
17035,Salos,54.668330,25.100680,,,17035,"http://www.visimarsrutai.lt/#/stop/result?stopId=17035",,,,,,
17036,Mickūnai,54.702450,25.516500,,,17036,"http://www.visimarsrutai.lt/#/stop/result?stopId=17036",,,,,,
17037,"Europos aikštė",54.695440,25.276980,,,17037,"http://www.visimarsrutai.lt/#/stop/result?stopId=17037",,,,,,
17039,"Teodoro Narbuto st.",54.699950,25.230160,,,17039,"http://www.visimarsrutai.lt/#/stop/result?stopId=17039",,,,,,
17040,"Vinco Kudirkos aikštė",54.687530,25.279800,,,17040,"http://www.visimarsrutai.lt/#/stop/result?stopId=17040",,,,,,
17041,Lūžiai,54.711640,25.217720,,,17041,"http://www.visimarsrutai.lt/#/stop/result?stopId=17041",,,,,,
17042,Lūžiai,54.710800,25.216610,,,17042,"http://www.visimarsrutai.lt/#/stop/result?stopId=17042",,,,,,
17043,"Bruknių st.",54.743550,25.303450,,,17043,"http://www.visimarsrutai.lt/#/stop/result?stopId=17043",,,,,,
17045,"Valakampių tiltas",54.723560,25.307250,,,17045,"http://www.visimarsrutai.lt/#/stop/result?stopId=17045",,,,,,
17046,"Mileišiškių sodai",54.713120,25.348090,,,17046,"http://www.visimarsrutai.lt/#/stop/result?stopId=17046",,,,,,
17047,"Mileišiškių sodai",54.712970,25.347430,,,17047,"http://www.visimarsrutai.lt/#/stop/result?stopId=17047",,,,,,
17048,Vingis,54.677190,25.254380,,,17048,"http://www.visimarsrutai.lt/#/stop/result?stopId=17048",,,,,,
17049,"Šiaurės miestelis",54.711390,25.303920,,,17049,"http://www.visimarsrutai.lt/#/stop/result?stopId=17049",,,,,,
17051,"Žalgirio st.",54.703900,25.283020,,,17051,"http://www.visimarsrutai.lt/#/stop/result?stopId=17051",,,,,,
17052,"2-asis paplūdimys",54.742390,25.294600,,,17052,"http://www.visimarsrutai.lt/#/stop/result?stopId=17052",,,,,,
17053,"Kaukaro st.",54.705550,25.215790,,,17053,"http://www.visimarsrutai.lt/#/stop/result?stopId=17053",,,,,,
17054,"Kražių st.",54.691790,25.270910,,,17054,"http://www.visimarsrutai.lt/#/stop/result?stopId=17054",,,,,,
17055,"Kaukaro st.",54.706650,25.215770,,,17055,"http://www.visimarsrutai.lt/#/stop/result?stopId=17055",,,,,,
17056,"Linkmenų st.",54.704870,25.269790,,,17056,"http://www.visimarsrutai.lt/#/stop/result?stopId=17056",,,,,,
17057,"Lizdeikos st.",54.727200,25.316250,,,17057,"http://www.visimarsrutai.lt/#/stop/result?stopId=17057",,,,,,
17058,Justiniškės,54.716520,25.220850,,,17058,"http://www.visimarsrutai.lt/#/stop/result?stopId=17058",,,,,,
17059,"Oskaro Milašiaus st.",54.727830,25.314380,,,17059,"http://www.visimarsrutai.lt/#/stop/result?stopId=17059",,,,,,
17062,"Uosių sodai",54.707700,25.385480,,,17062,"http://www.visimarsrutai.lt/#/stop/result?stopId=17062",,,,,,
17063,"Operos ir baleto teatras",54.690810,25.277320,,,17063,"http://www.visimarsrutai.lt/#/stop/result?stopId=17063",,,,,,
17064,"Rokantiškių sodai",54.705900,25.375780,,,17064,"http://www.visimarsrutai.lt/#/stop/result?stopId=17064",,,,,,
17065,"Operos ir baleto teatras",54.691230,25.275740,,,17065,"http://www.visimarsrutai.lt/#/stop/result?stopId=17065",,,,,,
17066,"Eigulių st.",54.669350,25.235710,,,17066,"http://www.visimarsrutai.lt/#/stop/result?stopId=17066",,,,,,
17067,"Uosių sodai",54.707540,25.386910,,,17067,"http://www.visimarsrutai.lt/#/stop/result?stopId=17067",,,,,,
17068,"Anapilio st.",54.707710,25.358400,,,17068,"http://www.visimarsrutai.lt/#/stop/result?stopId=17068",,,,,,
17069,"Rokantiškių sodai",54.706060,25.376750,,,17069,"http://www.visimarsrutai.lt/#/stop/result?stopId=17069",,,,,,
17070,"Anapilio st.",54.707640,25.358530,,,17070,"http://www.visimarsrutai.lt/#/stop/result?stopId=17070",,,,,,
17071,"Lazdynų ligoninė",54.670500,25.208090,,,17071,"http://www.visimarsrutai.lt/#/stop/result?stopId=17071",,,,,,
17072,"Lazdynų ligoninė",54.670310,25.209030,,,17072,"http://www.visimarsrutai.lt/#/stop/result?stopId=17072",,,,,,
17073,"Šiltnamių st.",54.671060,25.214180,,,17073,"http://www.visimarsrutai.lt/#/stop/result?stopId=17073",,,,,,
17074,"Juozo Tumo-Vaižganto st.",54.688350,25.267990,,,17074,"http://www.visimarsrutai.lt/#/stop/result?stopId=17074",,,,,,
17075,"Šiltnamių st.",54.670910,25.214920,,,17075,"http://www.visimarsrutai.lt/#/stop/result?stopId=17075",,,,,,
17076,"Lizdeikos st.",54.728720,25.313660,,,17076,"http://www.visimarsrutai.lt/#/stop/result?stopId=17076",,,,,,
17077,"Autobusų parkas",54.720920,25.295890,,,17077,"http://www.visimarsrutai.lt/#/stop/result?stopId=17077",,,,,,
17078,"Naujosios Vilnios žiedas",54.685430,25.428890,,,17078,"http://www.visimarsrutai.lt/#/stop/result?stopId=17078",,,,,,
17079,"Spaudos rūmai",54.703610,25.223530,,,17079,"http://www.visimarsrutai.lt/#/stop/result?stopId=17079",,,,,,
17080,"Mikalojaus Konstantino Čiurlionio st.",54.680820,25.265480,,,17080,"http://www.visimarsrutai.lt/#/stop/result?stopId=17080",,,,,,
17081,"Mikalojaus Konstantino Čiurlionio st.",54.682030,25.265260,,,17081,"http://www.visimarsrutai.lt/#/stop/result?stopId=17081",,,,,,
17082,"Balstogės st.",54.672210,25.305010,,,17082,"http://www.visimarsrutai.lt/#/stop/result?stopId=17082",,,,,,
17084,"Troleibusų parkas",54.703630,25.219400,,,17084,"http://www.visimarsrutai.lt/#/stop/result?stopId=17084",,,,,,
17085,"Gedimino prospektas",54.689090,25.262610,,,17085,"http://www.visimarsrutai.lt/#/stop/result?stopId=17085",,,,,,
17086,"Kražių st.",54.691720,25.271160,,,17086,"http://www.visimarsrutai.lt/#/stop/result?stopId=17086",,,,,,
17087,"Žalioji st.",54.669590,25.076680,,,17087,"http://www.visimarsrutai.lt/#/stop/result?stopId=17087",,,,,,
17088,"Vaidilutės st.",54.736040,25.294550,,,17088,"http://www.visimarsrutai.lt/#/stop/result?stopId=17088",,,,,,
17089,"Vašingtono aikštė",54.691600,25.269870,,,17089,"http://www.visimarsrutai.lt/#/stop/result?stopId=17089",,,,,,
17090,"Grigiškių žiedas",54.673620,25.082310,,,17090,"http://www.visimarsrutai.lt/#/stop/result?stopId=17090",,,,,,
17091,"Kranto st.",54.673290,25.080220,,,17091,"http://www.visimarsrutai.lt/#/stop/result?stopId=17091",,,,,,
17092,"1-asis paplūdimys",54.733110,25.296050,,,17092,"http://www.visimarsrutai.lt/#/stop/result?stopId=17092",,,,,,
17093,"Rato st.",54.730820,25.308690,,,17093,"http://www.visimarsrutai.lt/#/stop/result?stopId=17093",,,,,,
17094,Lentvaris,54.645070,25.054670,,,17094,"http://www.visimarsrutai.lt/#/stop/result?stopId=17094",,,,,,
17095,Naujamiestis,54.670430,25.261210,,,17095,"http://www.visimarsrutai.lt/#/stop/result?stopId=17095",,,,,,
17096,"Taraso Ševčenkos st.",54.676940,25.267490,,,17096,"http://www.visimarsrutai.lt/#/stop/result?stopId=17096",,,,,,
17098,"Bitėnų st.",54.701780,25.171950,,,17098,"http://www.visimarsrutai.lt/#/stop/result?stopId=17098",,,,,,
17099,"Aukštieji Paneriai",54.631260,25.173760,,,17099,"http://www.visimarsrutai.lt/#/stop/result?stopId=17099",,,,,,
17100,"Karveliškių kapinės",54.709280,25.100790,,,17100,"http://www.visimarsrutai.lt/#/stop/result?stopId=17100",,,,,,
17102,"Gilužio st.",54.704510,25.174490,,,17102,"http://www.visimarsrutai.lt/#/stop/result?stopId=17102",,,,,,
17103,Naujamiestis,54.670490,25.262600,,,17103,"http://www.visimarsrutai.lt/#/stop/result?stopId=17103",,,,,,
17105,"Bitėnų st.",54.701690,25.172350,,,17105,"http://www.visimarsrutai.lt/#/stop/result?stopId=17105",,,,,,
17108,Gudeliai,54.675850,25.192780,,,17108,"http://www.visimarsrutai.lt/#/stop/result?stopId=17108",,,,,,
17112,Kriaučiūnai,54.712000,25.150550,,,17112,"http://www.visimarsrutai.lt/#/stop/result?stopId=17112",,,,,,
17114,Kriaučiūnai,54.712440,25.149190,,,17114,"http://www.visimarsrutai.lt/#/stop/result?stopId=17114",,,,,,
17115,"Gedvydžių st.",54.734630,25.234190,,,17115,"http://www.visimarsrutai.lt/#/stop/result?stopId=17115",,,,,,
17116,"Žalgirio st.",54.703780,25.282210,,,17116,"http://www.visimarsrutai.lt/#/stop/result?stopId=17116",,,,,,
17117,"Stasio Krasausko st.",54.644330,25.090790,,,17117,"http://www.visimarsrutai.lt/#/stop/result?stopId=17117",,,,,,
17118,"Stasio Krasausko st.",54.644460,25.091200,,,17118,"http://www.visimarsrutai.lt/#/stop/result?stopId=17118",,,,,,
17119,"Balstogės st.",54.671370,25.304570,,,17119,"http://www.visimarsrutai.lt/#/stop/result?stopId=17119",,,,,,
17120,"Mūrinė Vokė",54.648380,25.121570,,,17120,"http://www.visimarsrutai.lt/#/stop/result?stopId=17120",,,,,,
17121,"Žirnių st.",54.653920,25.303960,,,17121,"http://www.visimarsrutai.lt/#/stop/result?stopId=17121",,,,,,
17122,Stankutiškės,54.620850,25.390240,,,17122,"http://www.visimarsrutai.lt/#/stop/result?stopId=17122",,,,,,
17123,"Migracijos departamentas",54.668150,25.255700,,,17123,"http://www.visimarsrutai.lt/#/stop/result?stopId=17123",,,,,,
17125,"Vilkpėdės žiedas",54.665630,25.245650,,,17125,"http://www.visimarsrutai.lt/#/stop/result?stopId=17125",,,,,,
17127,"Sodžiaus st.",54.613640,25.388720,,,17127,"http://www.visimarsrutai.lt/#/stop/result?stopId=17127",,,,,,
17128,"Ulonų st.",54.709210,25.291000,,,17128,"http://www.visimarsrutai.lt/#/stop/result?stopId=17128",,,,,,
17129,Balsiai,54.785950,25.347790,,,17129,"http://www.visimarsrutai.lt/#/stop/result?stopId=17129",,,,,,
17130,"Sodžiaus st.",54.613900,25.389010,,,17130,"http://www.visimarsrutai.lt/#/stop/result?stopId=17130",,,,,,
17131,"Jonažolių st.",54.669850,25.208460,,,17131,"http://www.visimarsrutai.lt/#/stop/result?stopId=17131",,,,,,
17132,Skaidiškės,54.605690,25.382550,,,17132,"http://www.visimarsrutai.lt/#/stop/result?stopId=17132",,,,,,
17133,"Vilkpėdės žiedas",54.665750,25.245010,,,17133,"http://www.visimarsrutai.lt/#/stop/result?stopId=17133",,,,,,
17135,"Geologų st.",54.639860,25.266790,,,17135,"http://www.visimarsrutai.lt/#/stop/result?stopId=17135",,,,,,
17136,"Tiekimo st.",54.632060,25.273120,,,17136,"http://www.visimarsrutai.lt/#/stop/result?stopId=17136",,,,,,
17138,"Ulonų st.",54.708890,25.291210,,,17138,"http://www.visimarsrutai.lt/#/stop/result?stopId=17138",,,,,,
17140,Gudeliai,54.675580,25.193080,,,17140,"http://www.visimarsrutai.lt/#/stop/result?stopId=17140",,,,,,
17142,"Jono Galvydžio st.",54.711830,25.292330,,,17142,"http://www.visimarsrutai.lt/#/stop/result?stopId=17142",,,,,,
17143,Burbiškės,54.666710,25.253100,,,17143,"http://www.visimarsrutai.lt/#/stop/result?stopId=17143",,,,,,
17144,"Ukmergės st.",54.712010,25.248800,,,17144,"http://www.visimarsrutai.lt/#/stop/result?stopId=17144",,,,,,
17145,"Ežerėlių st.",54.737840,25.342520,,,17145,"http://www.visimarsrutai.lt/#/stop/result?stopId=17145",,,,,,
17146,"Kiškių st.",54.733830,25.336640,,,17146,"http://www.visimarsrutai.lt/#/stop/result?stopId=17146",,,,,,
17147,"Nugalėtojų st.",54.741720,25.348570,,,17147,"http://www.visimarsrutai.lt/#/stop/result?stopId=17147",,,,,,
17148,"Nugalėtojų st.",54.741760,25.349310,,,17148,"http://www.visimarsrutai.lt/#/stop/result?stopId=17148",,,,,,
17149,"Ratilių st.",54.664560,25.214030,,,17149,"http://www.visimarsrutai.lt/#/stop/result?stopId=17149",,,,,,
17150,"Turniškių miškas",54.748150,25.357760,,,17150,"http://www.visimarsrutai.lt/#/stop/result?stopId=17150",,,,,,
17151,"Pakalnučių st.",54.669110,25.212980,,,17151,"http://www.visimarsrutai.lt/#/stop/result?stopId=17151",,,,,,
17152,"Akademijos st.",54.752630,25.272390,,,17152,"http://www.visimarsrutai.lt/#/stop/result?stopId=17152",,,,,,
17155,"Ratilių st.",54.665250,25.214350,,,17155,"http://www.visimarsrutai.lt/#/stop/result?stopId=17155",,,,,,
17156,"Turniškių miškas",54.748380,25.358490,,,17156,"http://www.visimarsrutai.lt/#/stop/result?stopId=17156",,,,,,
17157,Šeškinė,54.709760,25.252130,,,17157,"http://www.visimarsrutai.lt/#/stop/result?stopId=17157",,,,,,
17158,"Balžio st.",54.793000,25.429670,,,17158,"http://www.visimarsrutai.lt/#/stop/result?stopId=17158",,,,,,
17159,"Ežerėlių st.",54.738550,25.344380,,,17159,"http://www.visimarsrutai.lt/#/stop/result?stopId=17159",,,,,,
17160,"Jonažolių st.",54.669970,25.207400,,,17160,"http://www.visimarsrutai.lt/#/stop/result?stopId=17160",,,,,,
17161,"Balžio žiedas",54.794190,25.436520,,,17161,"http://www.visimarsrutai.lt/#/stop/result?stopId=17161",,,,,,
17162,Justiniškės,54.717540,25.222090,,,17162,"http://www.visimarsrutai.lt/#/stop/result?stopId=17162",,,,,,
17163,"Žiedų st.",54.677370,25.354720,,,17163,"http://www.visimarsrutai.lt/#/stop/result?stopId=17163",,,,,,
17164,"Veržuvos st.",54.762240,25.374050,,,17164,"http://www.visimarsrutai.lt/#/stop/result?stopId=17164",,,,,,
17165,"Žemoji st.",54.676150,25.350910,,,17165,"http://www.visimarsrutai.lt/#/stop/result?stopId=17165",,,,,,
17167,"Pavilnio regioninis parkas",54.659950,25.337230,,,17167,"http://www.visimarsrutai.lt/#/stop/result?stopId=17167",,,,,,
17168,Pupinė,54.621530,25.295810,,,17168,"http://www.visimarsrutai.lt/#/stop/result?stopId=17168",,,,,,
17170,"Švietimo akademija",54.698300,25.261210,,,17170,"http://www.visimarsrutai.lt/#/stop/result?stopId=17170",,,,,,
17171,Justiniškės,54.716760,25.222030,,,17171,"http://www.visimarsrutai.lt/#/stop/result?stopId=17171",,,,,,
17172,"Žiedų st.",54.677620,25.355520,,,17172,"http://www.visimarsrutai.lt/#/stop/result?stopId=17172",,,,,,
17174,Panorama,54.698920,25.256070,,,17174,"http://www.visimarsrutai.lt/#/stop/result?stopId=17174",,,,,,
17175,Markučiai,54.674370,25.322090,,,17175,"http://www.visimarsrutai.lt/#/stop/result?stopId=17175",,,,,,
17176,"Rygos st.",54.716870,25.231530,,,17176,"http://www.visimarsrutai.lt/#/stop/result?stopId=17176",,,,,,
17177,Arkikatedra,54.686670,25.286750,,,17177,"http://www.visimarsrutai.lt/#/stop/result?stopId=17177",,,,,,
17178,"Dūkštų st.",54.714860,25.245280,,,17178,"http://www.visimarsrutai.lt/#/stop/result?stopId=17178",,,,,,
17179,Žvėrynas,54.699380,25.244990,,,17179,"http://www.visimarsrutai.lt/#/stop/result?stopId=17179",,,,,,
17182,"Žemoji st.",54.676190,25.350630,,,17182,"http://www.visimarsrutai.lt/#/stop/result?stopId=17182",,,,,,
17183,"Neužmirštuolių st.",54.658180,25.202480,,,17183,"http://www.visimarsrutai.lt/#/stop/result?stopId=17183",,,,,,
17184,"Taikos st.",54.720600,25.222630,,,17184,"http://www.visimarsrutai.lt/#/stop/result?stopId=17184",,,,,,
17185,"Neužmirštuolių st.",54.658450,25.203790,,,17185,"http://www.visimarsrutai.lt/#/stop/result?stopId=17185",,,,,,
17186,"Pavilnio regioninis parkas",54.660070,25.337480,,,17186,"http://www.visimarsrutai.lt/#/stop/result?stopId=17186",,,,,,
17187,Pupinė,54.621370,25.294690,,,17187,"http://www.visimarsrutai.lt/#/stop/result?stopId=17187",,,,,,
17188,Arkikatedra,54.686650,25.286440,,,17188,"http://www.visimarsrutai.lt/#/stop/result?stopId=17188",,,,,,
17191,Kalnėnai,54.654530,25.331250,,,17191,"http://www.visimarsrutai.lt/#/stop/result?stopId=17191",,,,,,
17192,"Bijūnų st.",54.667290,25.216060,,,17192,"http://www.visimarsrutai.lt/#/stop/result?stopId=17192",,,,,,
17193,"Verbų st.",54.694550,25.444640,,,17193,"http://www.visimarsrutai.lt/#/stop/result?stopId=17193",,,,,,
17194,"Vaikų kaimas",54.709490,25.240350,,,17194,"http://www.visimarsrutai.lt/#/stop/result?stopId=17194",,,,,,
17196,"Viršupio sodai",54.712670,25.353190,,,17196,"http://www.visimarsrutai.lt/#/stop/result?stopId=17196",,,,,,
17197,Tuputiškės,54.676490,25.343760,,,17197,"http://www.visimarsrutai.lt/#/stop/result?stopId=17197",,,,,,
17199,"Verbų st.",54.694460,25.444670,,,17199,"http://www.visimarsrutai.lt/#/stop/result?stopId=17199",,,,,,
17200,"Antavilių žiedas",54.799800,25.399220,,,17200,"http://www.visimarsrutai.lt/#/stop/result?stopId=17200",,,,,,
17202,"Vladislavo Sirokomlės st.",54.634530,25.353930,,,17202,"http://www.visimarsrutai.lt/#/stop/result?stopId=17202",,,,,,
17203,"Viršupio sodai",54.713320,25.352600,,,17203,"http://www.visimarsrutai.lt/#/stop/result?stopId=17203",,,,,,
17204,Tuputiškės,54.676550,25.342350,,,17204,"http://www.visimarsrutai.lt/#/stop/result?stopId=17204",,,,,,
17205,"Šeškinės kalvos",54.711090,25.258190,,,17205,"http://www.visimarsrutai.lt/#/stop/result?stopId=17205",,,,,,
17206,Nemėžis,54.639000,25.355800,,,17206,"http://www.visimarsrutai.lt/#/stop/result?stopId=17206",,,,,,
17208,"Jono Biliūno st.",54.793710,25.390690,,,17208,"http://www.visimarsrutai.lt/#/stop/result?stopId=17208",,,,,,
17210,"Baltoji Vokė",54.602400,25.195570,,,17210,"http://www.visimarsrutai.lt/#/stop/result?stopId=17210",,,,,,
17212,"Gabijos st.",54.731350,25.224350,,,17212,"http://www.visimarsrutai.lt/#/stop/result?stopId=17212",,,,,,
17213,Aukštagiris,54.730570,25.356610,,,17213,"http://www.visimarsrutai.lt/#/stop/result?stopId=17213",,,,,,
17214,"Naujasis Lentvaris",54.658000,25.059650,,,17214,"http://www.visimarsrutai.lt/#/stop/result?stopId=17214",,,,,,
17215,"Kareivių st.",54.718590,25.303930,,,17215,"http://www.visimarsrutai.lt/#/stop/result?stopId=17215",,,,,,
17216,"Dvarčionių kryžkelė",54.733440,25.369720,,,17216,"http://www.visimarsrutai.lt/#/stop/result?stopId=17216",,,,,,
17217,"Juliaus Janonio st.",54.647780,25.109110,,,17217,"http://www.visimarsrutai.lt/#/stop/result?stopId=17217",,,,,,
17218,Žirmūnai,54.715950,25.305090,,,17218,"http://www.visimarsrutai.lt/#/stop/result?stopId=17218",,,,,,
17219,"Baltoji Vokė",54.603650,25.193290,,,17219,"http://www.visimarsrutai.lt/#/stop/result?stopId=17219",,,,,,
17220,"Dvarčionių kryžkelė",54.733470,25.370730,,,17220,"http://www.visimarsrutai.lt/#/stop/result?stopId=17220",,,,,,
17221,"Gabijos st.",54.731400,25.226320,,,17221,"http://www.visimarsrutai.lt/#/stop/result?stopId=17221",,,,,,
17222,"Šiaurės miestelis",54.710830,25.304650,,,17222,"http://www.visimarsrutai.lt/#/stop/result?stopId=17222",,,,,,
17223,"Lazerių st.",54.729490,25.374650,,,17223,"http://www.visimarsrutai.lt/#/stop/result?stopId=17223",,,,,,
17224,"Vandenų st.",54.658040,25.048740,,,17224,"http://www.visimarsrutai.lt/#/stop/result?stopId=17224",,,,,,
17225,Pašilaičiai,54.731950,25.230500,,,17225,"http://www.visimarsrutai.lt/#/stop/result?stopId=17225",,,,,,
17226,"Naujasis Lentvaris",54.658010,25.059340,,,17226,"http://www.visimarsrutai.lt/#/stop/result?stopId=17226",,,,,,
17227,Pašilaičiai,54.731410,25.231640,,,17227,"http://www.visimarsrutai.lt/#/stop/result?stopId=17227",,,,,,
17228,Licėjus,54.713050,25.278990,,,17228,"http://www.visimarsrutai.lt/#/stop/result?stopId=17228",,,,,,
17229,"Plytinės st.",54.727620,25.346710,,,17229,"http://www.visimarsrutai.lt/#/stop/result?stopId=17229",,,,,,
17230,"Sodybų st.",54.631820,25.326680,,,17230,"http://www.visimarsrutai.lt/#/stop/result?stopId=17230",,,,,,
17231,"Plytinės st.",54.727910,25.347780,,,17231,"http://www.visimarsrutai.lt/#/stop/result?stopId=17231",,,,,,
17232,"Vyturių st.",54.637440,25.327580,,,17232,"http://www.visimarsrutai.lt/#/stop/result?stopId=17232",,,,,,
17233,Aukštagiris,54.730490,25.355770,,,17233,"http://www.visimarsrutai.lt/#/stop/result?stopId=17233",,,,,,
17234,"Baltarusių st.",54.633640,25.343630,,,17234,"http://www.visimarsrutai.lt/#/stop/result?stopId=17234",,,,,,
17235,"Klinikų st.",54.710580,25.314370,,,17235,"http://www.visimarsrutai.lt/#/stop/result?stopId=17235",,,,,,
17237,Liepkalnis,54.662770,25.299620,,,17237,"http://www.visimarsrutai.lt/#/stop/result?stopId=17237",,,,,,
17239,"Mokslininkų st.",54.754540,25.249300,,,17239,"http://www.visimarsrutai.lt/#/stop/result?stopId=17239",,,,,,
17240,Paliuliškės,54.733650,25.410330,,,17240,"http://www.visimarsrutai.lt/#/stop/result?stopId=17240",,,,,,
17241,"Pagubės sodai",54.806210,25.326790,,,17241,"http://www.visimarsrutai.lt/#/stop/result?stopId=17241",,,,,,
17242,Sakališkės,54.814650,25.321730,,,17242,"http://www.visimarsrutai.lt/#/stop/result?stopId=17242",,,,,,
17243,Paliuliškės,54.732890,25.411040,,,17243,"http://www.visimarsrutai.lt/#/stop/result?stopId=17243",,,,,,
17244,"Karaliaus Mindaugo tiltas",54.688220,25.289000,,,17244,"http://www.visimarsrutai.lt/#/stop/result?stopId=17244",,,,,,
17245,"Pagubės sodai",54.805990,25.327490,,,17245,"http://www.visimarsrutai.lt/#/stop/result?stopId=17245",,,,,,
17246,"Pagubės sodai",54.806380,25.327270,,,17246,"http://www.visimarsrutai.lt/#/stop/result?stopId=17246",,,,,,
17247,"Lazerių st.",54.729560,25.374890,,,17247,"http://www.visimarsrutai.lt/#/stop/result?stopId=17247",,,,,,
17248,"Šilo tiltas",54.705190,25.310070,,,17248,"http://www.visimarsrutai.lt/#/stop/result?stopId=17248",,,,,,
17249,"Šilo tiltas",54.705450,25.310960,,,17249,"http://www.visimarsrutai.lt/#/stop/result?stopId=17249",,,,,,
17250,"1-asis Lentvaris",54.644270,25.064870,,,17250,"http://www.visimarsrutai.lt/#/stop/result?stopId=17250",,,,,,
17251,"Mokslininkų st.",54.754450,25.249770,,,17251,"http://www.visimarsrutai.lt/#/stop/result?stopId=17251",,,,,,
17252,Dvarčionys,54.729860,25.370330,,,17252,"http://www.visimarsrutai.lt/#/stop/result?stopId=17252",,,,,,
17253,Baniškės,54.734510,25.387100,,,17253,"http://www.visimarsrutai.lt/#/stop/result?stopId=17253",,,,,,
17254,"Kilimų fabrikas",54.655190,25.045690,,,17254,"http://www.visimarsrutai.lt/#/stop/result?stopId=17254",,,,,,
17255,"Klinikų st.",54.711250,25.314860,,,17255,"http://www.visimarsrutai.lt/#/stop/result?stopId=17255",,,,,,
17256,Baniškės,54.734530,25.388330,,,17256,"http://www.visimarsrutai.lt/#/stop/result?stopId=17256",,,,,,
17257,"Apkasų st.",54.703930,25.292700,,,17257,"http://www.visimarsrutai.lt/#/stop/result?stopId=17257",,,,,,
17258,"Monikos Mironaitės st.",54.680810,25.189670,,,17258,"http://www.visimarsrutai.lt/#/stop/result?stopId=17258",,,,,,
17259,"Minties st.",54.705060,25.299680,,,17259,"http://www.visimarsrutai.lt/#/stop/result?stopId=17259",,,,,,
17260,"Vakario st.",54.713590,25.412400,,,17260,"http://www.visimarsrutai.lt/#/stop/result?stopId=17260",,,,,,
17261,"Jono Kairiūkščio st.",54.757180,25.269910,,,17261,"http://www.visimarsrutai.lt/#/stop/result?stopId=17261",,,,,,
17262,"Titnago st.",54.650490,25.184590,,,17262,"http://www.visimarsrutai.lt/#/stop/result?stopId=17262",,,,,,
17263,"Vakario st.",54.714540,25.412600,,,17263,"http://www.visimarsrutai.lt/#/stop/result?stopId=17263",,,,,,
17264,"Apkasų st.",54.703940,25.291420,,,17264,"http://www.visimarsrutai.lt/#/stop/result?stopId=17264",,,,,,
17265,"Jono Kairiūkščio st.",54.757050,25.270260,,,17265,"http://www.visimarsrutai.lt/#/stop/result?stopId=17265",,,,,,
17266,"Rodūnios sodų st.",54.632490,25.277780,,,17266,"http://www.visimarsrutai.lt/#/stop/result?stopId=17266",,,,,,
17267,"Vokės parkas",54.594160,25.219240,,,17267,"http://www.visimarsrutai.lt/#/stop/result?stopId=17267",,,,,,
17268,"Lubinų st.",54.728720,25.411810,,,17268,"http://www.visimarsrutai.lt/#/stop/result?stopId=17268",,,,,,
17269,"Lubinų st.",54.729760,25.412240,,,17269,"http://www.visimarsrutai.lt/#/stop/result?stopId=17269",,,,,,
17270,"Purienų st.",54.724870,25.412110,,,17270,"http://www.visimarsrutai.lt/#/stop/result?stopId=17270",,,,,,
17271,"Purienų st.",54.724880,25.412000,,,17271,"http://www.visimarsrutai.lt/#/stop/result?stopId=17271",,,,,,
17272,"Naujoji Vilnia",54.695260,25.439040,,,17272,"http://www.visimarsrutai.lt/#/stop/result?stopId=17272",,,,,,
17273,Galgiai,54.719350,25.411500,,,17273,"http://www.visimarsrutai.lt/#/stop/result?stopId=17273",,,,,,
17274,Padekaniškės,54.710590,25.160350,,,17274,"http://www.visimarsrutai.lt/#/stop/result?stopId=17274",,,,,,
17275,"Minties st.",54.705070,25.298640,,,17275,"http://www.visimarsrutai.lt/#/stop/result?stopId=17275",,,,,,
17277,"Stasylų st.",54.628710,25.133420,,,17277,"http://www.visimarsrutai.lt/#/stop/result?stopId=17277",,,,,,
17278,"Stasylų st.",54.628290,25.130730,,,17278,"http://www.visimarsrutai.lt/#/stop/result?stopId=17278",,,,,,
17279,"Trakų Vokė",54.623680,25.110000,,,17279,"http://www.visimarsrutai.lt/#/stop/result?stopId=17279",,,,,,
17280,"Juliaus Janonio st.",54.647650,25.110840,,,17280,"http://www.visimarsrutai.lt/#/stop/result?stopId=17280",,,,,,
17281,"1-ieji Juodšiliai",54.585280,25.248280,,,17281,"http://www.visimarsrutai.lt/#/stop/result?stopId=17281",,,,,,
17282,"1-ieji Juodšiliai",54.585410,25.249240,,,17282,"http://www.visimarsrutai.lt/#/stop/result?stopId=17282",,,,,,
17283,"Chemijos institutas",54.753850,25.263850,,,17283,"http://www.visimarsrutai.lt/#/stop/result?stopId=17283",,,,,,
17284,Salininkai,54.605890,25.249600,,,17284,"http://www.visimarsrutai.lt/#/stop/result?stopId=17284",,,,,,
17286,"Žalioji st.",54.669990,25.077200,,,17286,"http://www.visimarsrutai.lt/#/stop/result?stopId=17286",,,,,,
17287,Juodbaliai,54.612080,25.120920,,,17287,"http://www.visimarsrutai.lt/#/stop/result?stopId=17287",,,,,,
17288,Ąžuolynas,54.811250,25.323780,,,17288,"http://www.visimarsrutai.lt/#/stop/result?stopId=17288",,,,,,
17289,Ąžuolynas,54.810990,25.323840,,,17289,"http://www.visimarsrutai.lt/#/stop/result?stopId=17289",,,,,,
17290,Juodbaliai,54.611890,25.120840,,,17290,"http://www.visimarsrutai.lt/#/stop/result?stopId=17290",,,,,,
17292,"1-asis Lentvaris",54.644370,25.065520,,,17292,"http://www.visimarsrutai.lt/#/stop/result?stopId=17292",,,,,,
17293,"Eduardo Andrė st.",54.628430,25.108180,,,17293,"http://www.visimarsrutai.lt/#/stop/result?stopId=17293",,,,,,
17294,"Kranto st.",54.673490,25.080720,,,17294,"http://www.visimarsrutai.lt/#/stop/result?stopId=17294",,,,,,
17295,Bališkės,54.646320,25.099660,,,17295,"http://www.visimarsrutai.lt/#/stop/result?stopId=17295",,,,,,
17296,Bališkės,54.646130,25.098640,,,17296,"http://www.visimarsrutai.lt/#/stop/result?stopId=17296",,,,,,
17299,Bajorai,54.756730,25.237160,,,17299,"http://www.visimarsrutai.lt/#/stop/result?stopId=17299",,,,,,
17305,"1-osios Bukiškės",54.763560,25.200030,,,17305,"http://www.visimarsrutai.lt/#/stop/result?stopId=17305",,,,,,
17306,"2-osios Bukiškės",54.763090,25.198520,,,17306,"http://www.visimarsrutai.lt/#/stop/result?stopId=17306",,,,,,
17307,"Bukiškių st.",54.757580,25.205660,,,17307,"http://www.visimarsrutai.lt/#/stop/result?stopId=17307",,,,,,
17308,Paštas,54.635950,25.277040,,,17308,"http://www.visimarsrutai.lt/#/stop/result?stopId=17308",,,,,,
17311,Vanaginė,54.775390,25.272910,,,17311,"http://www.visimarsrutai.lt/#/stop/result?stopId=17311",,,,,,
17313,"Bernardinų st.",54.682000,25.311980,,,17313,"http://www.visimarsrutai.lt/#/stop/result?stopId=17313",,,,,,
17314,Žvėrynas,54.699480,25.243200,,,17314,"http://www.visimarsrutai.lt/#/stop/result?stopId=17314",,,,,,
17316,"Vilnios st.",54.680240,25.293650,,,17316,"http://www.visimarsrutai.lt/#/stop/result?stopId=17316",,,,,,
17317,Užupis,54.681210,25.300760,,,17317,"http://www.visimarsrutai.lt/#/stop/result?stopId=17317",,,,,,
17318,"Bernardinų kapinės",54.681450,25.305380,,,17318,"http://www.visimarsrutai.lt/#/stop/result?stopId=17318",,,,,,
17323,"Karoliniškių poliklinika",54.692830,25.214160,,,17323,"http://www.visimarsrutai.lt/#/stop/result?stopId=17323",,,,,,
17324,"Ugniagesių st.",54.689510,25.209040,,,17324,"http://www.visimarsrutai.lt/#/stop/result?stopId=17324",,,,,,
17325,"Vilniaus Pergalė",54.614100,25.152040,,,17325,"http://www.visimarsrutai.lt/#/stop/result?stopId=17325",,,,,,
17328,"Senoji plytinė",54.724160,25.340750,,,17328,"http://www.visimarsrutai.lt/#/stop/result?stopId=17328",,,,,,
17329,"Atminties st.",54.686740,25.206500,,,17329,"http://www.visimarsrutai.lt/#/stop/result?stopId=17329",,,,,,
17330,"Pasakų parkas",54.684770,25.205590,,,17330,"http://www.visimarsrutai.lt/#/stop/result?stopId=17330",,,,,,
17331,"Siesikų st.",54.709800,25.244240,,,17331,"http://www.visimarsrutai.lt/#/stop/result?stopId=17331",,,,,,
17332,"Pasakų parkas",54.684610,25.206070,,,17332,"http://www.visimarsrutai.lt/#/stop/result?stopId=17332",,,,,,
17333,"Siesikų st.",54.709850,25.246360,,,17333,"http://www.visimarsrutai.lt/#/stop/result?stopId=17333",,,,,,
17334,"Drujos st.",54.678390,25.310530,,,17334,"http://www.visimarsrutai.lt/#/stop/result?stopId=17334",,,,,,
17335,"Jokūbo Jasinskio st.",54.688280,25.263520,,,17335,"http://www.visimarsrutai.lt/#/stop/result?stopId=17335",,,,,,
17336,"Šeškinės kalvos",54.711570,25.257000,,,17336,"http://www.visimarsrutai.lt/#/stop/result?stopId=17336",,,,,,
17337,"Pamėnkalnio st.",54.687840,25.266590,,,17337,"http://www.visimarsrutai.lt/#/stop/result?stopId=17337",,,,,,
17338,Liepkalnis,54.662850,25.298850,,,17338,"http://www.visimarsrutai.lt/#/stop/result?stopId=17338",,,,,,
17341,"Ąžuolo st.",54.679940,25.217650,,,17341,"http://www.visimarsrutai.lt/#/stop/result?stopId=17341",,,,,,
17342,"Pirmieji Pagiriai",54.586350,25.210410,,,17342,"http://www.visimarsrutai.lt/#/stop/result?stopId=17342",,,,,,
17343,"Ąžuolo st.",54.679340,25.217010,,,17343,"http://www.visimarsrutai.lt/#/stop/result?stopId=17343",,,,,,
17344,"Pirmieji Pagiriai",54.587110,25.211160,,,17344,"http://www.visimarsrutai.lt/#/stop/result?stopId=17344",,,,,,
17345,Stadionas,54.667560,25.297100,,,17345,"http://www.visimarsrutai.lt/#/stop/result?stopId=17345",,,,,,
17346,"Ryto st.",54.682150,25.213710,,,17346,"http://www.visimarsrutai.lt/#/stop/result?stopId=17346",,,,,,
17347,Stadionas,54.668480,25.296390,,,17347,"http://www.visimarsrutai.lt/#/stop/result?stopId=17347",,,,,,
17348,"Ryto st.",54.682680,25.213090,,,17348,"http://www.visimarsrutai.lt/#/stop/result?stopId=17348",,,,,,
17349,Liepkalnis,54.662870,25.299950,,,17349,"http://www.visimarsrutai.lt/#/stop/result?stopId=17349",,,,,,
17350,Liepkalnis,54.662980,25.300150,,,17350,"http://www.visimarsrutai.lt/#/stop/result?stopId=17350",,,,,,
17351,"Spaudos rūmai",54.702630,25.223770,,,17351,"http://www.visimarsrutai.lt/#/stop/result?stopId=17351",,,,,,
17355,"Popieriaus st.",54.769960,25.332610,,,17355,"http://www.visimarsrutai.lt/#/stop/result?stopId=17355",,,,,,
17356,"Vytauto st.",54.691170,25.256430,,,17356,"http://www.visimarsrutai.lt/#/stop/result?stopId=17356",,,,,,
17357,Visoriai,54.757810,25.264740,,,17357,"http://www.visimarsrutai.lt/#/stop/result?stopId=17357",,,,,,
17358,"Popieriaus st.",54.769870,25.332020,,,17358,"http://www.visimarsrutai.lt/#/stop/result?stopId=17358",,,,,,
17359,"Srovės st.",54.681880,25.315550,,,17359,"http://www.visimarsrutai.lt/#/stop/result?stopId=17359",,,,,,
17361,Ežerėliai,54.762550,25.310180,,,17361,"http://www.visimarsrutai.lt/#/stop/result?stopId=17361",,,,,,
17362,Ežerėliai,54.761310,25.306660,,,17362,"http://www.visimarsrutai.lt/#/stop/result?stopId=17362",,,,,,
17363,"Kelininkų st.",54.649170,25.302660,,,17363,"http://www.visimarsrutai.lt/#/stop/result?stopId=17363",,,,,,
17364,"Kurklių st.",54.770330,25.327440,,,17364,"http://www.visimarsrutai.lt/#/stop/result?stopId=17364",,,,,,
17365,"Šalčininkų kryptis",54.643980,25.302730,,,17365,"http://www.visimarsrutai.lt/#/stop/result?stopId=17365",,,,,,
17366,"Šalčininkų kryptis",54.644840,25.302850,,,17366,"http://www.visimarsrutai.lt/#/stop/result?stopId=17366",,,,,,
17368,Stotis,54.671100,25.284430,,,17368,"http://www.visimarsrutai.lt/#/stop/result?stopId=17368",,,,,,
17369,"Kurklių st.",54.770020,25.326500,,,17369,"http://www.visimarsrutai.lt/#/stop/result?stopId=17369",,,,,,
17371,Kineliai,54.597600,25.315640,,,17371,"http://www.visimarsrutai.lt/#/stop/result?stopId=17371",,,,,,
17372,"Fizikos institutas",54.642120,25.182540,,,17372,"http://www.visimarsrutai.lt/#/stop/result?stopId=17372",,,,,,
17373,"Naujoji Vilnia",54.695230,25.440390,,,17373,"http://www.visimarsrutai.lt/#/stop/result?stopId=17373",,,,,,
17374,Staviškės,54.763980,25.352760,,,17374,"http://www.visimarsrutai.lt/#/stop/result?stopId=17374",,,,,,
17375,"Naujoji st.",54.763490,25.345980,,,17375,"http://www.visimarsrutai.lt/#/stop/result?stopId=17375",,,,,,
17376,Staviškės,54.763450,25.351620,,,17376,"http://www.visimarsrutai.lt/#/stop/result?stopId=17376",,,,,,
17377,"Zarasų st.",54.676690,25.310120,,,17377,"http://www.visimarsrutai.lt/#/stop/result?stopId=17377",,,,,,
17378,"Kremplių st.",54.766980,25.335860,,,17378,"http://www.visimarsrutai.lt/#/stop/result?stopId=17378",,,,,,
17379,"Svirno st.",54.617250,25.308240,,,17379,"http://www.visimarsrutai.lt/#/stop/result?stopId=17379",,,,,,
17380,"Spaudos rūmai",54.704170,25.225470,,,17380,"http://www.visimarsrutai.lt/#/stop/result?stopId=17380",,,,,,
17381,"Svirno st.",54.618650,25.307960,,,17381,"http://www.visimarsrutai.lt/#/stop/result?stopId=17381",,,,,,
17382,"Subačiaus st.",54.677230,25.302490,,,17382,"http://www.visimarsrutai.lt/#/stop/result?stopId=17382",,,,,,
17383,"Kremplių st.",54.767250,25.335660,,,17383,"http://www.visimarsrutai.lt/#/stop/result?stopId=17383",,,,,,
17384,Basiukai,54.612060,25.310460,,,17384,"http://www.visimarsrutai.lt/#/stop/result?stopId=17384",,,,,,
17385,"Vaikų darželis",54.763060,25.335910,,,17385,"http://www.visimarsrutai.lt/#/stop/result?stopId=17385",,,,,,
17386,Basiukai,54.610520,25.310980,,,17386,"http://www.visimarsrutai.lt/#/stop/result?stopId=17386",,,,,,
17387,Katiliškės,54.604360,25.313040,,,17387,"http://www.visimarsrutai.lt/#/stop/result?stopId=17387",,,,,,
17388,"Sūduvių st.",54.725630,25.219220,,,17388,"http://www.visimarsrutai.lt/#/stop/result?stopId=17388",,,,,,
17389,"Naujoji st.",54.763320,25.346320,,,17389,"http://www.visimarsrutai.lt/#/stop/result?stopId=17389",,,,,,
17390,Katiliškės,54.606120,25.313080,,,17390,"http://www.visimarsrutai.lt/#/stop/result?stopId=17390",,,,,,
17391,"Draugystės st.",54.595980,25.364120,,,17391,"http://www.visimarsrutai.lt/#/stop/result?stopId=17391",,,,,,
17392,"Draugystės st.",54.595920,25.363510,,,17392,"http://www.visimarsrutai.lt/#/stop/result?stopId=17392",,,,,,
17393,"Vilijos st.",54.635950,25.173160,,,17393,"http://www.visimarsrutai.lt/#/stop/result?stopId=17393",,,,,,
17394,"Žaros st.",54.666490,25.195760,,,17394,"http://www.visimarsrutai.lt/#/stop/result?stopId=17394",,,,,,
17395,"Kiškių st.",54.734570,25.338140,,,17395,"http://www.visimarsrutai.lt/#/stop/result?stopId=17395",,,,,,
17396,"Chemijos st.",54.626890,25.147040,,,17396,"http://www.visimarsrutai.lt/#/stop/result?stopId=17396",,,,,,
17397,"Lentvario st.",54.638740,25.178330,,,17397,"http://www.visimarsrutai.lt/#/stop/result?stopId=17397",,,,,,
17398,"Rudaminos paukštynas",54.594640,25.329510,,,17398,"http://www.visimarsrutai.lt/#/stop/result?stopId=17398",,,,,,
17399,Ožkiniai,54.767060,25.360110,,,17399,"http://www.visimarsrutai.lt/#/stop/result?stopId=17399",,,,,,
17400,"Lentvario st.",54.638360,25.177260,,,17400,"http://www.visimarsrutai.lt/#/stop/result?stopId=17400",,,,,,
17401,"Rudaminos paukštynas",54.594840,25.329150,,,17401,"http://www.visimarsrutai.lt/#/stop/result?stopId=17401",,,,,,
17402,Ožkiniai,54.767180,25.361500,,,17402,"http://www.visimarsrutai.lt/#/stop/result?stopId=17402",,,,,,
17404,"Čekėnų st.",54.593020,25.337980,,,17404,"http://www.visimarsrutai.lt/#/stop/result?stopId=17404",,,,,,
17405,Stotis,54.670770,25.283260,,,17405,"http://www.visimarsrutai.lt/#/stop/result?stopId=17405",,,,,,
17407,"Vilijos st.",54.635570,25.171740,,,17407,"http://www.visimarsrutai.lt/#/stop/result?stopId=17407",,,,,,
17408,"Prekybos st.",54.620630,25.157410,,,17408,"http://www.visimarsrutai.lt/#/stop/result?stopId=17408",,,,,,
17409,"Prekybos st.",54.621280,25.156730,,,17409,"http://www.visimarsrutai.lt/#/stop/result?stopId=17409",,,,,,
17410,"Algirdo st.",54.681450,25.266400,,,17410,"http://www.visimarsrutai.lt/#/stop/result?stopId=17410",,,,,,
17411,Daniliškės,54.601050,25.138170,,,17411,"http://www.visimarsrutai.lt/#/stop/result?stopId=17411",,,,,,
17412,"Šaltinėlio st.",54.726570,25.296740,,,17412,"http://www.visimarsrutai.lt/#/stop/result?stopId=17412",,,,,,
17413,Saulėtekis,54.727190,25.326710,,,17413,"http://www.visimarsrutai.lt/#/stop/result?stopId=17413",,,,,,
17414,Miškiniai,54.671190,25.227250,,,17414,"http://www.visimarsrutai.lt/#/stop/result?stopId=17414",,,,,,
17415,Miškiniai,54.670930,25.226410,,,17415,"http://www.visimarsrutai.lt/#/stop/result?stopId=17415",,,,,,
17416,"Ožkinių žiedas",54.768440,25.366460,,,17416,"http://www.visimarsrutai.lt/#/stop/result?stopId=17416",,,,,,
17417,"Galvės st.",54.632740,25.150800,,,17417,"http://www.visimarsrutai.lt/#/stop/result?stopId=17417",,,,,,
17418,Skaidiškės,54.605830,25.383870,,,17418,"http://www.visimarsrutai.lt/#/stop/result?stopId=17418",,,,,,
17419,"Rūdninkų st.",54.674540,25.284920,,,17419,"http://www.visimarsrutai.lt/#/stop/result?stopId=17419",,,,,,
17420,Skaidiškės,54.606400,25.383570,,,17420,"http://www.visimarsrutai.lt/#/stop/result?stopId=17420",,,,,,
17421,"Žvėryno žiedas",54.698460,25.246200,,,17421,"http://www.visimarsrutai.lt/#/stop/result?stopId=17421",,,,,,
17422,"Skaidiškių žiedas",54.609430,25.385990,,,17422,"http://www.visimarsrutai.lt/#/stop/result?stopId=17422",,,,,,
17423,"Chemijos st.",54.626280,25.150990,,,17423,"http://www.visimarsrutai.lt/#/stop/result?stopId=17423",,,,,,
17424,"Žirmūnų  žiedas",54.726660,25.297100,,,17424,"http://www.visimarsrutai.lt/#/stop/result?stopId=17424",,,,,,
17426,"Vytenio st.",54.673420,25.266070,,,17426,"http://www.visimarsrutai.lt/#/stop/result?stopId=17426",,,,,,
17427,Burbiškės,54.666800,25.252750,,,17427,"http://www.visimarsrutai.lt/#/stop/result?stopId=17427",,,,,,
17428,"Sausupio st.",54.647220,25.212170,,,17428,"http://www.visimarsrutai.lt/#/stop/result?stopId=17428",,,,,,
17429,Takas,54.734160,25.235940,,,17429,"http://www.visimarsrutai.lt/#/stop/result?stopId=17429",,,,,,
17431,"Fabijoniškių žiedas",54.739060,25.241470,,,17431,"http://www.visimarsrutai.lt/#/stop/result?stopId=17431",,,,,,
17432,"Musninkų st.",54.716650,25.243860,,,17432,"http://www.visimarsrutai.lt/#/stop/result?stopId=17432",,,,,,
17434,"Kalvarijų turgus",54.700190,25.283010,,,17434,"http://www.visimarsrutai.lt/#/stop/result?stopId=17434",,,,,,
17435,"Fabijoniškių žiedas",54.739330,25.240440,,,17435,"http://www.visimarsrutai.lt/#/stop/result?stopId=17435",,,,,,
17438,"Aukštoji Veržuva",54.749990,25.428120,,,17438,"http://www.visimarsrutai.lt/#/stop/result?stopId=17438",,,,,,
17439,"Fabijoniškių žiedas",54.740090,25.240620,,,17439,"http://www.visimarsrutai.lt/#/stop/result?stopId=17439",,,,,,
17440,"Kelininkų st.",54.650480,25.303080,,,17440,"http://www.visimarsrutai.lt/#/stop/result?stopId=17440",,,,,,
17441,Vingis,54.677540,25.255550,,,17441,"http://www.visimarsrutai.lt/#/stop/result?stopId=17441",,,,,,
17442,"Kunigiškių st.",54.670570,25.092770,,,17442,"http://www.visimarsrutai.lt/#/stop/result?stopId=17442",,,,,,
17443,"Giedraičių st.",54.708040,25.285500,,,17443,"http://www.visimarsrutai.lt/#/stop/result?stopId=17443",,,,,,
17446,"Broniaus Laurinavičiaus skveras",54.704190,25.284050,,,17446,"http://www.visimarsrutai.lt/#/stop/result?stopId=17446",,,,,,
17448,"Gedvydžių st.",54.736340,25.237300,,,17448,"http://www.visimarsrutai.lt/#/stop/result?stopId=17448",,,,,,
17450,"Svajonių st.",54.740650,25.314690,,,17450,"http://www.visimarsrutai.lt/#/stop/result?stopId=17450",,,,,,
17451,"Laurų st.",54.789490,25.383270,,,17451,"http://www.visimarsrutai.lt/#/stop/result?stopId=17451",,,,,,
17452,"Naujieji Verkiai",54.759840,25.332170,,,17452,"http://www.visimarsrutai.lt/#/stop/result?stopId=17452",,,,,,
17453,"Verkių st.",54.718430,25.295530,,,17453,"http://www.visimarsrutai.lt/#/stop/result?stopId=17453",,,,,,
17454,"Gedvydžių st.",54.737020,25.238220,,,17454,"http://www.visimarsrutai.lt/#/stop/result?stopId=17454",,,,,,
17455,"Pramogų arena",54.715040,25.288210,,,17455,"http://www.visimarsrutai.lt/#/stop/result?stopId=17455",,,,,,
17456,Takas,54.732960,25.236890,,,17456,"http://www.visimarsrutai.lt/#/stop/result?stopId=17456",,,,,,
17457,"Šv. Petro ir Povilo bažnyčia",54.692750,25.303150,,,17457,"http://www.visimarsrutai.lt/#/stop/result?stopId=17457",,,,,,
17458,"Pajautos st.",54.710500,25.174060,,,17458,"http://www.visimarsrutai.lt/#/stop/result?stopId=17458",,,,,,
17459,"Kalnų parkas",54.689380,25.294500,,,17459,"http://www.visimarsrutai.lt/#/stop/result?stopId=17459",,,,,,
17460,"Ragučio st.",54.780260,25.342040,,,17460,"http://www.visimarsrutai.lt/#/stop/result?stopId=17460",,,,,,
17461,"Ragučio st.",54.780760,25.342630,,,17461,"http://www.visimarsrutai.lt/#/stop/result?stopId=17461",,,,,,
17464,"Senoji  Pilaitė",54.704160,25.196640,,,17464,"http://www.visimarsrutai.lt/#/stop/result?stopId=17464",,,,,,
17467,"Pajautos st.",54.710180,25.176080,,,17467,"http://www.visimarsrutai.lt/#/stop/result?stopId=17467",,,,,,
17468,"Gerosios Vilties st.",54.670800,25.241960,,,17468,"http://www.visimarsrutai.lt/#/stop/result?stopId=17468",,,,,,
17469,Stotis,54.671060,25.283990,,,17469,"http://www.visimarsrutai.lt/#/stop/result?stopId=17469",,,,,,
17470,"Nemenčinės plentas",54.722780,25.320040,,,17470,"http://www.visimarsrutai.lt/#/stop/result?stopId=17470",,,,,,
17471,"Žėručio st.",54.676610,25.208400,,,17471,"http://www.visimarsrutai.lt/#/stop/result?stopId=17471",,,,,,
17472,"Žolyno st.",54.707820,25.338470,,,17472,"http://www.visimarsrutai.lt/#/stop/result?stopId=17472",,,,,,
17473,"Šeškinės poliklinika",54.716060,25.247450,,,17473,"http://www.visimarsrutai.lt/#/stop/result?stopId=17473",,,,,,
17474,"Prūsų st.",54.665050,25.273160,,,17474,"http://www.visimarsrutai.lt/#/stop/result?stopId=17474",,,,,,
17475,"Karaliaučiaus st.",54.707400,25.175720,,,17475,"http://www.visimarsrutai.lt/#/stop/result?stopId=17475",,,,,,
17476,Papiškės,54.716430,25.129970,,,17476,"http://www.visimarsrutai.lt/#/stop/result?stopId=17476",,,,,,
17477,"Lietuvos sąjūdžio kelias",54.698530,25.266500,,,17477,"http://www.visimarsrutai.lt/#/stop/result?stopId=17477",,,,,,
17479,"Taraso Ševčenkos st.",54.678690,25.267180,,,17479,"http://www.visimarsrutai.lt/#/stop/result?stopId=17479",,,,,,
17480,"Karaliaučiaus st.",54.707250,25.175820,,,17480,"http://www.visimarsrutai.lt/#/stop/result?stopId=17480",,,,,,
17481,Papiškės,54.716070,25.132020,,,17481,"http://www.visimarsrutai.lt/#/stop/result?stopId=17481",,,,,,
17482,"Algirdo st.",54.681970,25.268200,,,17482,"http://www.visimarsrutai.lt/#/stop/result?stopId=17482",,,,,,
17483,"Tolminkiemio st.",54.707360,25.181190,,,17483,"http://www.visimarsrutai.lt/#/stop/result?stopId=17483",,,,,,
17485,Vaivadiškės,54.717200,25.111560,,,17485,"http://www.visimarsrutai.lt/#/stop/result?stopId=17485",,,,,,
17486,"Karaliaus Mindaugo tiltas",54.688670,25.286630,,,17486,"http://www.visimarsrutai.lt/#/stop/result?stopId=17486",,,,,,
17487,Vaivadiškės,54.717460,25.112790,,,17487,"http://www.visimarsrutai.lt/#/stop/result?stopId=17487",,,,,,
17489,"Smalinės st.",54.709320,25.187420,,,17489,"http://www.visimarsrutai.lt/#/stop/result?stopId=17489",,,,,,
17490,"Šv. Petro ir Povilo bažnyčia",54.693010,25.303130,,,17490,"http://www.visimarsrutai.lt/#/stop/result?stopId=17490",,,,,,
17491,"Tolminkiemio st.",54.707210,25.180090,,,17491,"http://www.visimarsrutai.lt/#/stop/result?stopId=17491",,,,,,
17493,"Įsruties st.",54.709940,25.182930,,,17493,"http://www.visimarsrutai.lt/#/stop/result?stopId=17493",,,,,,
17494,"Papilėnų st.",54.706850,25.187410,,,17494,"http://www.visimarsrutai.lt/#/stop/result?stopId=17494",,,,,,
17495,"Įsruties st.",54.710450,25.181220,,,17495,"http://www.visimarsrutai.lt/#/stop/result?stopId=17495",,,,,,
17496,"Vingio parkas",54.674050,25.241990,,,17496,"http://www.visimarsrutai.lt/#/stop/result?stopId=17496",,,,,,
17497,"Verkių st.",54.717320,25.295620,,,17497,"http://www.visimarsrutai.lt/#/stop/result?stopId=17497",,,,,,
17498,Stotis,54.670710,25.284900,,,17498,"http://www.visimarsrutai.lt/#/stop/result?stopId=17498",,,,,,
17499,"Vilkpėdės st.",54.664780,25.236790,,,17499,"http://www.visimarsrutai.lt/#/stop/result?stopId=17499",,,,,,
17500,"Valakampių tiltas",54.724090,25.308490,,,17500,"http://www.visimarsrutai.lt/#/stop/result?stopId=17500",,,,,,
17502,"Vilkpėdės st.",54.663310,25.235480,,,17502,"http://www.visimarsrutai.lt/#/stop/result?stopId=17502",,,,,,
17503,"Kareivių st.",54.720620,25.303160,,,17503,"http://www.visimarsrutai.lt/#/stop/result?stopId=17503",,,,,,
17505,"Europos aikštė",54.695640,25.277430,,,17505,"http://www.visimarsrutai.lt/#/stop/result?stopId=17505",,,,,,
17506,"Oslo st.",54.670160,25.197590,,,17506,"http://www.visimarsrutai.lt/#/stop/result?stopId=17506",,,,,,
17507,"Pranciškaus Baltraus Šivickio st.",54.661320,25.349580,,,17507,"http://www.visimarsrutai.lt/#/stop/result?stopId=17507",,,,,,
17509,"Studentų st.",54.697290,25.263270,,,17509,"http://www.visimarsrutai.lt/#/stop/result?stopId=17509",,,,,,
17510,"Pranciškaus Baltraus Šivickio st.",54.661240,25.349860,,,17510,"http://www.visimarsrutai.lt/#/stop/result?stopId=17510",,,,,,
17511,"Studentų st.",54.697240,25.264300,,,17511,"http://www.visimarsrutai.lt/#/stop/result?stopId=17511",,,,,,
17512,"Klinikų st.",54.711240,25.314980,,,17512,"http://www.visimarsrutai.lt/#/stop/result?stopId=17512",,,,,,
17513,"Gurių sodai",54.659860,25.359710,,,17513,"http://www.visimarsrutai.lt/#/stop/result?stopId=17513",,,,,,
17514,"Gerosios Vilties st.",54.670400,25.241590,,,17514,"http://www.visimarsrutai.lt/#/stop/result?stopId=17514",,,,,,
17515,"Vinco Pietario st.",54.676880,25.245790,,,17515,"http://www.visimarsrutai.lt/#/stop/result?stopId=17515",,,,,,
17516,"Šumsko kryptis",54.658890,25.364400,,,17516,"http://www.visimarsrutai.lt/#/stop/result?stopId=17516",,,,,,
17517,"Vingio parkas",54.672800,25.239430,,,17517,"http://www.visimarsrutai.lt/#/stop/result?stopId=17517",,,,,,
17518,"Gurių sodai",54.659970,25.359110,,,17518,"http://www.visimarsrutai.lt/#/stop/result?stopId=17518",,,,,,
17519,"Alberto Goštauto st.",54.694560,25.267470,,,17519,"http://www.visimarsrutai.lt/#/stop/result?stopId=17519",,,,,,
17521,"Pajautos st.",54.709770,25.174880,,,17521,"http://www.visimarsrutai.lt/#/stop/result?stopId=17521",,,,,,
17522,Viršupis,54.696150,25.344960,,,17522,"http://www.visimarsrutai.lt/#/stop/result?stopId=17522",,,,,,
17523,Viršupis,54.695790,25.343970,,,17523,"http://www.visimarsrutai.lt/#/stop/result?stopId=17523",,,,,,
17524,"Šilo st.",54.700090,25.349330,,,17524,"http://www.visimarsrutai.lt/#/stop/result?stopId=17524",,,,,,
17525,"Šilo st.",54.699050,25.347700,,,17525,"http://www.visimarsrutai.lt/#/stop/result?stopId=17525",,,,,,
17526,Kalvarijos,54.739330,25.275350,,,17526,"http://www.visimarsrutai.lt/#/stop/result?stopId=17526",,,,,,
17527,"Metalo st.",54.645560,25.265670,,,17527,"http://www.visimarsrutai.lt/#/stop/result?stopId=17527",,,,,,
17528,"Smolensko st.",54.667420,25.260050,,,17528,"http://www.visimarsrutai.lt/#/stop/result?stopId=17528",,,,,,
17529,"Ramybės st.",54.672030,25.299050,,,17529,"http://www.visimarsrutai.lt/#/stop/result?stopId=17529",,,,,,
17530,"Laisvės prospektas",54.697520,25.221230,,,17530,"http://www.visimarsrutai.lt/#/stop/result?stopId=17530",,,,,,
17531,"Oslo st.",54.670070,25.198770,,,17531,"http://www.visimarsrutai.lt/#/stop/result?stopId=17531",,,,,,
17532,"Smolensko st.",54.667140,25.259110,,,17532,"http://www.visimarsrutai.lt/#/stop/result?stopId=17532",,,,,,
17533,"Ugniagesių st.",54.690210,25.210680,,,17533,"http://www.visimarsrutai.lt/#/stop/result?stopId=17533",,,,,,
17534,"Žemieji Paneriai",54.646080,25.209480,,,17534,"http://www.visimarsrutai.lt/#/stop/result?stopId=17534",,,,,,
17535,"Rugių st.",54.738010,25.269280,,,17535,"http://www.visimarsrutai.lt/#/stop/result?stopId=17535",,,,,,
17536,"Prekybos bazė",54.658060,25.138070,,,17536,"http://www.visimarsrutai.lt/#/stop/result?stopId=17536",,,,,,
17537,"Užutekio st.",54.659070,25.207400,,,17537,"http://www.visimarsrutai.lt/#/stop/result?stopId=17537",,,,,,
17538,"Rugių st.",54.738190,25.270440,,,17538,"http://www.visimarsrutai.lt/#/stop/result?stopId=17538",,,,,,
17539,"Užutekio st.",54.659180,25.207760,,,17539,"http://www.visimarsrutai.lt/#/stop/result?stopId=17539",,,,,,
17540,"Gunkliškių st.",54.627300,25.101270,,,17540,"http://www.visimarsrutai.lt/#/stop/result?stopId=17540",,,,,,
17541,"Eišiškių plentas",54.649250,25.267840,,,17541,"http://www.visimarsrutai.lt/#/stop/result?stopId=17541",,,,,,
17542,"Bičiulių st.",54.603130,25.134790,,,17542,"http://www.visimarsrutai.lt/#/stop/result?stopId=17542",,,,,,
17543,Baldai,54.650660,25.218250,,,17543,"http://www.visimarsrutai.lt/#/stop/result?stopId=17543",,,,,,
17544,"Lietuvos sąjūdžio kelias",54.698250,25.266300,,,17544,"http://www.visimarsrutai.lt/#/stop/result?stopId=17544",,,,,,
17545,"Eišiškių plentas",54.649700,25.268530,,,17545,"http://www.visimarsrutai.lt/#/stop/result?stopId=17545",,,,,,
17546,"Bičiulių st.",54.603930,25.134190,,,17546,"http://www.visimarsrutai.lt/#/stop/result?stopId=17546",,,,,,
17547,Metropolis,54.608700,25.128910,,,17547,"http://www.visimarsrutai.lt/#/stop/result?stopId=17547",,,,,,
17549,„Lelija“,54.668150,25.263690,,,17549,"http://www.visimarsrutai.lt/#/stop/result?stopId=17549",,,,,,
17550,"Akademijos st.",54.753520,25.268380,,,17550,"http://www.visimarsrutai.lt/#/stop/result?stopId=17550",,,,,,
17551,Metropolis,54.608310,25.129120,,,17551,"http://www.visimarsrutai.lt/#/stop/result?stopId=17551",,,,,,
17552,"Panerių miškas",54.617010,25.229450,,,17552,"http://www.visimarsrutai.lt/#/stop/result?stopId=17552",,,,,,
17553,"Panerių miškas",54.616410,25.227800,,,17553,"http://www.visimarsrutai.lt/#/stop/result?stopId=17553",,,,,,
17554,"Aguonų st.",54.672840,25.277360,,,17554,"http://www.visimarsrutai.lt/#/stop/result?stopId=17554",,,,,,
17555,"Akademijos st.",54.753910,25.270250,,,17555,"http://www.visimarsrutai.lt/#/stop/result?stopId=17555",,,,,,
17557,"Pal. Jurgio Matulaičio bažnyčia",54.712400,25.228240,,,17557,"http://www.visimarsrutai.lt/#/stop/result?stopId=17557",,,,,,
17558,"Gvazdikų st.",54.743660,25.398040,,,17558,"http://www.visimarsrutai.lt/#/stop/result?stopId=17558",,,,,,
17559,"Valkininkų st.",54.643950,25.199720,,,17559,"http://www.visimarsrutai.lt/#/stop/result?stopId=17559",,,,,,
17560,"Gvazdikų st.",54.743150,25.398350,,,17560,"http://www.visimarsrutai.lt/#/stop/result?stopId=17560",,,,,,
17561,"Žemynos st.",54.726650,25.233980,,,17561,"http://www.visimarsrutai.lt/#/stop/result?stopId=17561",,,,,,
17563,"Geologų st.",54.638680,25.266840,,,17563,"http://www.visimarsrutai.lt/#/stop/result?stopId=17563",,,,,,
17564,Lyglaukiai,54.702370,25.353810,,,17564,"http://www.visimarsrutai.lt/#/stop/result?stopId=17564",,,,,,
17565,Lyglaukiai,54.702770,25.354060,,,17565,"http://www.visimarsrutai.lt/#/stop/result?stopId=17565",,,,,,
17566,Katilinė,54.634860,25.266040,,,17566,"http://www.visimarsrutai.lt/#/stop/result?stopId=17566",,,,,,
17567,"Valkininkų st.",54.644060,25.202560,,,17567,"http://www.visimarsrutai.lt/#/stop/result?stopId=17567",,,,,,
17568,"Meistrų st.",54.630850,25.259450,,,17568,"http://www.visimarsrutai.lt/#/stop/result?stopId=17568",,,,,,
17569,Rokantiškės,54.704110,25.364060,,,17569,"http://www.visimarsrutai.lt/#/stop/result?stopId=17569",,,,,,
17570,"Švietimo akademija",54.698700,25.261330,,,17570,"http://www.visimarsrutai.lt/#/stop/result?stopId=17570",,,,,,
17571,Karoliniškės,54.692790,25.217330,,,17571,"http://www.visimarsrutai.lt/#/stop/result?stopId=17571",,,,,,
17572,"Pameistrių st.",54.630780,25.264740,,,17572,"http://www.visimarsrutai.lt/#/stop/result?stopId=17572",,,,,,
17573,"Bukiškių st.",54.757760,25.205860,,,17573,"http://www.visimarsrutai.lt/#/stop/result?stopId=17573",,,,,,
17574,Lazdynai,54.679260,25.213290,,,17574,"http://www.visimarsrutai.lt/#/stop/result?stopId=17574",,,,,,
17575,"Elektros st.",54.633990,25.256660,,,17575,"http://www.visimarsrutai.lt/#/stop/result?stopId=17575",,,,,,
17576,"Šaltupio st.",54.646760,25.191130,,,17576,"http://www.visimarsrutai.lt/#/stop/result?stopId=17576",,,,,,
17577,"Šaltupio st.",54.647340,25.190380,,,17577,"http://www.visimarsrutai.lt/#/stop/result?stopId=17577",,,,,,
17579,"Šeimyniškių st.",54.695560,25.296870,,,17579,"http://www.visimarsrutai.lt/#/stop/result?stopId=17579",,,,,,
17580,Riovonys,54.658930,25.232330,,,17580,"http://www.visimarsrutai.lt/#/stop/result?stopId=17580",,,,,,
17581,"Pamėnkalnio st.",54.687360,25.269340,,,17581,"http://www.visimarsrutai.lt/#/stop/result?stopId=17581",,,,,,
17582,"Tuskulėnų rimties parkas",54.698230,25.301300,,,17582,"http://www.visimarsrutai.lt/#/stop/result?stopId=17582",,,,,,
17583,"Islandijos st.",54.685000,25.276410,,,17583,"http://www.visimarsrutai.lt/#/stop/result?stopId=17583",,,,,,
17584,"Lazdynų seniūnija",54.675200,25.204120,,,17584,"http://www.visimarsrutai.lt/#/stop/result?stopId=17584",,,,,,
17585,"Pumpėnų st.",54.722390,25.221920,,,17585,"http://www.visimarsrutai.lt/#/stop/result?stopId=17585",,,,,,
17586,"Žemoji Veržuva",54.750020,25.401240,,,17586,"http://www.visimarsrutai.lt/#/stop/result?stopId=17586",,,,,,
17587,Vinciūniškės,54.759100,25.395050,,,17587,"http://www.visimarsrutai.lt/#/stop/result?stopId=17587",,,,,,
17588,"Kalno st.",54.704760,25.392860,,,17588,"http://www.visimarsrutai.lt/#/stop/result?stopId=17588",,,,,,
17590,"Naujosios Gineitiškės",54.735970,25.201370,,,17590,"http://www.visimarsrutai.lt/#/stop/result?stopId=17590",,,,,,
17591,"Žemoji Veržuva",54.750020,25.401510,,,17591,"http://www.visimarsrutai.lt/#/stop/result?stopId=17591",,,,,,
17592,"Simono Konarskio st.",54.679470,25.259320,,,17592,"http://www.visimarsrutai.lt/#/stop/result?stopId=17592",,,,,,
17594,Žvėrynas,54.698720,25.245650,,,17594,"http://www.visimarsrutai.lt/#/stop/result?stopId=17594",,,,,,
17595,"Šaltinėlio st.",54.725410,25.298260,,,17595,"http://www.visimarsrutai.lt/#/stop/result?stopId=17595",,,,,,
17596,"Gervėčių st.",54.673360,25.298820,,,17596,"http://www.visimarsrutai.lt/#/stop/result?stopId=17596",,,,,,
17597,"Sėlių st.",54.698400,25.248680,,,17597,"http://www.visimarsrutai.lt/#/stop/result?stopId=17597",,,,,,
17598,"Migracijos departamentas",54.669830,25.258330,,,17598,"http://www.visimarsrutai.lt/#/stop/result?stopId=17598",,,,,,
17599,"Gervėčių st.",54.674600,25.297280,,,17599,"http://www.visimarsrutai.lt/#/stop/result?stopId=17599",,,,,,
17600,"Rasų kapinės",54.670460,25.301090,,,17600,"http://www.visimarsrutai.lt/#/stop/result?stopId=17600",,,,,,
17601,"Latvių st.",54.693850,25.250720,,,17601,"http://www.visimarsrutai.lt/#/stop/result?stopId=17601",,,,,,
17602,Saulėtekis,54.726220,25.324820,,,17602,"http://www.visimarsrutai.lt/#/stop/result?stopId=17602",,,,,,
17603,"Rasų kapinės",54.670020,25.301180,,,17603,"http://www.visimarsrutai.lt/#/stop/result?stopId=17603",,,,,,
17604,"Trakų st.",54.679340,25.278020,,,17604,"http://www.visimarsrutai.lt/#/stop/result?stopId=17604",,,,,,
17605,"Pakalniškių st.",54.654160,25.223840,,,17605,"http://www.visimarsrutai.lt/#/stop/result?stopId=17605",,,,,,
17606,"Sėlių st.",54.697440,25.249770,,,17606,"http://www.visimarsrutai.lt/#/stop/result?stopId=17606",,,,,,
17607,LITEXPO,54.675610,25.222500,,,17607,"http://www.visimarsrutai.lt/#/stop/result?stopId=17607",,,,,,
17608,"Deivių st.",54.735620,25.229050,,,17608,"http://www.visimarsrutai.lt/#/stop/result?stopId=17608",,,,,,
17609,Žirmūnai,54.716660,25.305450,,,17609,"http://www.visimarsrutai.lt/#/stop/result?stopId=17609",,,,,,
17610,"Minties st.",54.704180,25.304540,,,17610,"http://www.visimarsrutai.lt/#/stop/result?stopId=17610",,,,,,
17611,"Simono Konarskio st.",54.679860,25.259640,,,17611,"http://www.visimarsrutai.lt/#/stop/result?stopId=17611",,,,,,
17612,Zujūnai,54.726710,25.181530,,,17612,"http://www.visimarsrutai.lt/#/stop/result?stopId=17612",,,,,,
17613,"Centro poliklinika",54.683710,25.277010,,,17613,"http://www.visimarsrutai.lt/#/stop/result?stopId=17613",,,,,,
17614,"Kareivių st.",54.719340,25.303560,,,17614,"http://www.visimarsrutai.lt/#/stop/result?stopId=17614",,,,,,
17615,"Reformatų st.",54.681170,25.277310,,,17615,"http://www.visimarsrutai.lt/#/stop/result?stopId=17615",,,,,,
17616,Ribiškės,54.666840,25.313290,,,17616,"http://www.visimarsrutai.lt/#/stop/result?stopId=17616",,,,,,
17617,Ribiškės,54.666870,25.312600,,,17617,"http://www.visimarsrutai.lt/#/stop/result?stopId=17617",,,,,,
17618,"Juodasis kelias",54.666340,25.325420,,,17618,"http://www.visimarsrutai.lt/#/stop/result?stopId=17618",,,,,,
17619,"Giedraičių st.",54.707340,25.284940,,,17619,"http://www.visimarsrutai.lt/#/stop/result?stopId=17619",,,,,,
17620,"Juodasis kelias",54.666480,25.324600,,,17620,"http://www.visimarsrutai.lt/#/stop/result?stopId=17620",,,,,,
17621,"Ūmėdžių st.",54.642620,25.204250,,,17621,"http://www.visimarsrutai.lt/#/stop/result?stopId=17621",,,,,,
17622,Stotis,54.671080,25.284200,,,17622,"http://www.visimarsrutai.lt/#/stop/result?stopId=17622",,,,,,
17623,"Šiaurės st.",54.709290,25.416810,,,17623,"http://www.visimarsrutai.lt/#/stop/result?stopId=17623",,,,,,
17624,Guriai,54.663310,25.341870,,,17624,"http://www.visimarsrutai.lt/#/stop/result?stopId=17624",,,,,,
17625,"Bazilijonų st.",54.674080,25.286570,,,17625,"http://www.visimarsrutai.lt/#/stop/result?stopId=17625",,,,,,
17626,Stotis,54.671470,25.283270,,,17626,"http://www.visimarsrutai.lt/#/stop/result?stopId=17626",,,,,,
17627,Saulėtekis,54.726240,25.327520,,,17627,"http://www.visimarsrutai.lt/#/stop/result?stopId=17627",,,,,,
17629,"Trakų st.",54.679020,25.278550,,,17629,"http://www.visimarsrutai.lt/#/stop/result?stopId=17629",,,,,,
17630,Baldai,54.649830,25.216140,,,17630,"http://www.visimarsrutai.lt/#/stop/result?stopId=17630",,,,,,
17631,"Kęstučio st.",54.691210,25.251580,,,17631,"http://www.visimarsrutai.lt/#/stop/result?stopId=17631",,,,,,
17632,"Vilniaus universitetas",54.724540,25.331990,,,17632,"http://www.visimarsrutai.lt/#/stop/result?stopId=17632",,,,,,
17633,"Tauragnų st.",54.711690,25.286250,,,17633,"http://www.visimarsrutai.lt/#/stop/result?stopId=17633",,,,,,
17634,"Latvių st.",54.694330,25.250750,,,17634,"http://www.visimarsrutai.lt/#/stop/result?stopId=17634",,,,,,
17635,Šnipiškės,54.699830,25.268920,,,17635,"http://www.visimarsrutai.lt/#/stop/result?stopId=17635",,,,,,
17636,"Akacijų st.",54.678180,25.202730,,,17636,"http://www.visimarsrutai.lt/#/stop/result?stopId=17636",,,,,,
17637,"Liubarto tiltas",54.689080,25.255740,,,17637,"http://www.visimarsrutai.lt/#/stop/result?stopId=17637",,,,,,
17638,"Gedimino technikos universitetas",54.723850,25.335660,,,17638,"http://www.visimarsrutai.lt/#/stop/result?stopId=17638",,,,,,
17639,"Dunojaus st.",54.666610,25.306730,,,17639,"http://www.visimarsrutai.lt/#/stop/result?stopId=17639",,,,,,
17640,Vingriai,54.676650,25.280860,,,17640,"http://www.visimarsrutai.lt/#/stop/result?stopId=17640",,,,,,
17641,"Kęstučio st.",54.689480,25.251900,,,17641,"http://www.visimarsrutai.lt/#/stop/result?stopId=17641",,,,,,
17642,"Fermentų st.",54.625490,25.139890,,,17642,"http://www.visimarsrutai.lt/#/stop/result?stopId=17642",,,,,,
17643,"Misionierių st.",54.676600,25.297350,,,17643,"http://www.visimarsrutai.lt/#/stop/result?stopId=17643",,,,,,
17644,"Monikos Mironaitės st.",54.680830,25.189500,,,17644,"http://www.visimarsrutai.lt/#/stop/result?stopId=17644",,,,,,
17645,"Pavilnio sodai",54.665010,25.346550,,,17645,"http://www.visimarsrutai.lt/#/stop/result?stopId=17645",,,,,,
17646,"Garsioji st.",54.666920,25.355410,,,17646,"http://www.visimarsrutai.lt/#/stop/result?stopId=17646",,,,,,
17647,"Subačiaus st.",54.677010,25.303620,,,17647,"http://www.visimarsrutai.lt/#/stop/result?stopId=17647",,,,,,
17648,"Garsioji st.",54.666890,25.353560,,,17648,"http://www.visimarsrutai.lt/#/stop/result?stopId=17648",,,,,,
17649,"Vokės st.",54.619230,25.145210,,,17649,"http://www.visimarsrutai.lt/#/stop/result?stopId=17649",,,,,,
17650,"Palydovo st.",54.701120,25.409980,,,17650,"http://www.visimarsrutai.lt/#/stop/result?stopId=17650",,,,,,
17651,"Grūdų st.",54.668670,25.359960,,,17651,"http://www.visimarsrutai.lt/#/stop/result?stopId=17651",,,,,,
17653,"Šiltnamių žiedas",54.667080,25.221450,,,17653,"http://www.visimarsrutai.lt/#/stop/result?stopId=17653",,,,,,
17654,"Palydovo st.",54.701000,25.408440,,,17654,"http://www.visimarsrutai.lt/#/stop/result?stopId=17654",,,,,,
17655,"Grūdų st.",54.667940,25.359410,,,17655,"http://www.visimarsrutai.lt/#/stop/result?stopId=17655",,,,,,
17656,"Kazbėjų st.",54.616450,25.149090,,,17656,"http://www.visimarsrutai.lt/#/stop/result?stopId=17656",,,,,,
17657,"Kazbėjų st.",54.615840,25.149530,,,17657,"http://www.visimarsrutai.lt/#/stop/result?stopId=17657",,,,,,
17658,"Kareivių st.",54.719890,25.301610,,,17658,"http://www.visimarsrutai.lt/#/stop/result?stopId=17658",,,,,,
17659,"Pavilnio sodai",54.664940,25.345650,,,17659,"http://www.visimarsrutai.lt/#/stop/result?stopId=17659",,,,,,
17660,"Gedimino technikos universitetas",54.724120,25.334510,,,17660,"http://www.visimarsrutai.lt/#/stop/result?stopId=17660",,,,,,
17661,"Šiaurės st.",54.708630,25.417160,,,17661,"http://www.visimarsrutai.lt/#/stop/result?stopId=17661",,,,,,
17663,"Aušros vartai",54.674730,25.292780,,,17663,"http://www.visimarsrutai.lt/#/stop/result?stopId=17663",,,,,,
17664,"Nemenčinės plentas",54.723850,25.320070,,,17664,"http://www.visimarsrutai.lt/#/stop/result?stopId=17664",,,,,,
17665,"Fermentų st.",54.624710,25.140780,,,17665,"http://www.visimarsrutai.lt/#/stop/result?stopId=17665",,,,,,
17666,"Pupojų st.",54.702720,25.414110,,,17666,"http://www.visimarsrutai.lt/#/stop/result?stopId=17666",,,,,,
17667,Antakalnis,54.719600,25.317240,,,17667,"http://www.visimarsrutai.lt/#/stop/result?stopId=17667",,,,,,
17668,"Tverečiaus st.",54.717500,25.316590,,,17668,"http://www.visimarsrutai.lt/#/stop/result?stopId=17668",,,,,,
17669,"Pupojų st.",54.701830,25.413100,,,17669,"http://www.visimarsrutai.lt/#/stop/result?stopId=17669",,,,,,
17670,Lazdynai,54.678910,25.213310,,,17670,"http://www.visimarsrutai.lt/#/stop/result?stopId=17670",,,,,,
17671,Katilinė,54.634880,25.266210,,,17671,"http://www.visimarsrutai.lt/#/stop/result?stopId=17671",,,,,,
17672,"Paukščių takas",54.680650,25.208840,,,17672,"http://www.visimarsrutai.lt/#/stop/result?stopId=17672",,,,,,
17673,"Rudens st.",54.686400,25.325050,,,17673,"http://www.visimarsrutai.lt/#/stop/result?stopId=17673",,,,,,
17675,Šaudykla,54.689020,25.332430,,,17675,"http://www.visimarsrutai.lt/#/stop/result?stopId=17675",,,,,,
17676,"Pramogų arena",54.715080,25.285730,,,17676,"http://www.visimarsrutai.lt/#/stop/result?stopId=17676",,,,,,
17677,"Paukščių takas",54.680850,25.209220,,,17677,"http://www.visimarsrutai.lt/#/stop/result?stopId=17677",,,,,,
17678,"Jankiškių st.",54.645060,25.195220,,,17678,"http://www.visimarsrutai.lt/#/stop/result?stopId=17678",,,,,,
17679,"Jankiškių st.",54.645370,25.194680,,,17679,"http://www.visimarsrutai.lt/#/stop/result?stopId=17679",,,,,,
17680,"Pameistrių st.",54.630790,25.264950,,,17680,"http://www.visimarsrutai.lt/#/stop/result?stopId=17680",,,,,,
17681,"Tremtinių st.",54.692600,25.410630,,,17681,"http://www.visimarsrutai.lt/#/stop/result?stopId=17681",,,,,,
17682,"Kalvarijų turgus",54.699310,25.282490,,,17682,"http://www.visimarsrutai.lt/#/stop/result?stopId=17682",,,,,,
17683,"Vėjo st.",54.595970,25.175620,,,17683,"http://www.visimarsrutai.lt/#/stop/result?stopId=17683",,,,,,
17684,"Arimų st.",54.702480,25.431450,,,17684,"http://www.visimarsrutai.lt/#/stop/result?stopId=17684",,,,,,
17685,Kirtimai,54.636840,25.274610,,,17685,"http://www.visimarsrutai.lt/#/stop/result?stopId=17685",,,,,,
17686,"Ateities st.",54.736000,25.265990,,,17686,"http://www.visimarsrutai.lt/#/stop/result?stopId=17686",,,,,,
17687,Slėnis,54.612270,25.154400,,,17687,"http://www.visimarsrutai.lt/#/stop/result?stopId=17687",,,,,,
17688,"Juodšilių st.",54.616690,25.162420,,,17688,"http://www.visimarsrutai.lt/#/stop/result?stopId=17688",,,,,,
17689,"Uosių st.",54.699430,25.401410,,,17689,"http://www.visimarsrutai.lt/#/stop/result?stopId=17689",,,,,,
17690,Slėnis,54.612150,25.154220,,,17690,"http://www.visimarsrutai.lt/#/stop/result?stopId=17690",,,,,,
17691,"Juodšilių st.",54.616060,25.162980,,,17691,"http://www.visimarsrutai.lt/#/stop/result?stopId=17691",,,,,,
17692,"Uosių st.",54.699390,25.401950,,,17692,"http://www.visimarsrutai.lt/#/stop/result?stopId=17692",,,,,,
17693,Pavilnys,54.671200,25.361190,,,17693,"http://www.visimarsrutai.lt/#/stop/result?stopId=17693",,,,,,
17694,"Verkių st.",54.716870,25.293600,,,17694,"http://www.visimarsrutai.lt/#/stop/result?stopId=17694",,,,,,
17695,"Bijūnų st.",54.667640,25.216520,,,17695,"http://www.visimarsrutai.lt/#/stop/result?stopId=17695",,,,,,
17696,"Paparčių st.",54.701630,25.394110,,,17696,"http://www.visimarsrutai.lt/#/stop/result?stopId=17696",,,,,,
17697,"Pramogų arena",54.715560,25.289430,,,17697,"http://www.visimarsrutai.lt/#/stop/result?stopId=17697",,,,,,
17698,"Uosių st.",54.699030,25.401220,,,17698,"http://www.visimarsrutai.lt/#/stop/result?stopId=17698",,,,,,
17699,"Vilijos st.",54.634840,25.172540,,,17699,"http://www.visimarsrutai.lt/#/stop/result?stopId=17699",,,,,,
17700,"Paparčių st.",54.701570,25.394620,,,17700,"http://www.visimarsrutai.lt/#/stop/result?stopId=17700",,,,,,
17701,"Elektros st.",54.633740,25.256390,,,17701,"http://www.visimarsrutai.lt/#/stop/result?stopId=17701",,,,,,
17702,"Meistrų st.",54.630730,25.259390,,,17702,"http://www.visimarsrutai.lt/#/stop/result?stopId=17702",,,,,,
17703,"Taikos st.",54.721590,25.222790,,,17703,"http://www.visimarsrutai.lt/#/stop/result?stopId=17703",,,,,,
17704,Viadukas,54.693970,25.349200,,,17704,"http://www.visimarsrutai.lt/#/stop/result?stopId=17704",,,,,,
17705,"Alberto Kojelavičiaus st.",54.696310,25.398440,,,17705,"http://www.visimarsrutai.lt/#/stop/result?stopId=17705",,,,,,
17706,Salininkai,54.606210,25.250500,,,17706,"http://www.visimarsrutai.lt/#/stop/result?stopId=17706",,,,,,
17707,Viršuliškės,54.708490,25.226740,,,17707,"http://www.visimarsrutai.lt/#/stop/result?stopId=17707",,,,,,
17708,"Oslo st.",54.669530,25.197960,,,17708,"http://www.visimarsrutai.lt/#/stop/result?stopId=17708",,,,,,
17709,Girininkija,54.694390,25.363630,,,17709,"http://www.visimarsrutai.lt/#/stop/result?stopId=17709",,,,,,
17710,"Sūduvių st.",54.726460,25.219060,,,17710,"http://www.visimarsrutai.lt/#/stop/result?stopId=17710",,,,,,
17711,Girininkija,54.694590,25.364860,,,17711,"http://www.visimarsrutai.lt/#/stop/result?stopId=17711",,,,,,
17713,Kučkuriškės,54.695510,25.369010,,,17713,"http://www.visimarsrutai.lt/#/stop/result?stopId=17713",,,,,,
17714,"Pal. Jurgio Matulaičio bažnyčia",54.711780,25.226780,,,17714,"http://www.visimarsrutai.lt/#/stop/result?stopId=17714",,,,,,
17715,"Žvejų st.",54.691700,25.289100,,,17715,"http://www.visimarsrutai.lt/#/stop/result?stopId=17715",,,,,,
17716,Kučkuriškės,54.695810,25.369550,,,17716,"http://www.visimarsrutai.lt/#/stop/result?stopId=17716",,,,,,
17717,"Šaulių sąjunga",54.709090,25.226070,,,17717,"http://www.visimarsrutai.lt/#/stop/result?stopId=17717",,,,,,
17718,"Žvejų st.",54.690040,25.288700,,,17718,"http://www.visimarsrutai.lt/#/stop/result?stopId=17718",,,,,,
17719,"Užtvankos st.",54.696700,25.381050,,,17719,"http://www.visimarsrutai.lt/#/stop/result?stopId=17719",,,,,,
17720,"Čiobiškio st.",54.718930,25.232000,,,17720,"http://www.visimarsrutai.lt/#/stop/result?stopId=17720",,,,,,
17721,"Herkaus Manto st.",54.701100,25.286600,,,17721,"http://www.visimarsrutai.lt/#/stop/result?stopId=17721",,,,,,
17722,"Užtvankos st.",54.696500,25.381130,,,17722,"http://www.visimarsrutai.lt/#/stop/result?stopId=17722",,,,,,
17723,"Rygos st.",54.715600,25.230190,,,17723,"http://www.visimarsrutai.lt/#/stop/result?stopId=17723",,,,,,
17724,"Autobusų parkas",54.722160,25.296690,,,17724,"http://www.visimarsrutai.lt/#/stop/result?stopId=17724",,,,,,
17725,"Rinktinės st.",54.695080,25.288380,,,17725,"http://www.visimarsrutai.lt/#/stop/result?stopId=17725",,,,,,
17726,Paštas,54.635810,25.276550,,,17726,"http://www.visimarsrutai.lt/#/stop/result?stopId=17726",,,,,,
17727,"Atminties st.",54.687150,25.207130,,,17727,"http://www.visimarsrutai.lt/#/stop/result?stopId=17727",,,,,,
17728,Viadukas,54.693010,25.348980,,,17728,"http://www.visimarsrutai.lt/#/stop/result?stopId=17728",,,,,,
17729,"Karoliniškių poliklinika",54.693440,25.215240,,,17729,"http://www.visimarsrutai.lt/#/stop/result?stopId=17729",,,,,,
17730,"Drujos st.",54.678780,25.311640,,,17730,"http://www.visimarsrutai.lt/#/stop/result?stopId=17730",,,,,,
17731,"Aukštieji Paneriai",54.631350,25.174030,,,17731,"http://www.visimarsrutai.lt/#/stop/result?stopId=17731",,,,,,
17732,"Vokės st.",54.619760,25.144920,,,17732,"http://www.visimarsrutai.lt/#/stop/result?stopId=17732",,,,,,
17733,"Rygos st.",54.716470,25.229620,,,17733,"http://www.visimarsrutai.lt/#/stop/result?stopId=17733",,,,,,
17734,"Vikingų st.",54.651230,25.282030,,,17734,"http://www.visimarsrutai.lt/#/stop/result?stopId=17734",,,,,,
17735,"Salininkų sodai",54.618230,25.284650,,,17735,"http://www.visimarsrutai.lt/#/stop/result?stopId=17735",,,,,,
17736,"Alberto Kojelavičiaus st.",54.694650,25.396740,,,17736,"http://www.visimarsrutai.lt/#/stop/result?stopId=17736",,,,,,
17737,"Vilniaus rajono poliklinika",54.722810,25.233430,,,17737,"http://www.visimarsrutai.lt/#/stop/result?stopId=17737",,,,,,
17738,"Salininkų sodai",54.618030,25.283480,,,17738,"http://www.visimarsrutai.lt/#/stop/result?stopId=17738",,,,,,
17739,"Sakalaičių st.",54.611860,25.274910,,,17739,"http://www.visimarsrutai.lt/#/stop/result?stopId=17739",,,,,,
17740,"Pašilaičių žiedas",54.727730,25.233870,,,17740,"http://www.visimarsrutai.lt/#/stop/result?stopId=17740",,,,,,
17741,Stotis,54.671400,25.283000,,,17741,"http://www.visimarsrutai.lt/#/stop/result?stopId=17741",,,,,,
17742,"Vikingų st.",54.651830,25.282550,,,17742,"http://www.visimarsrutai.lt/#/stop/result?stopId=17742",,,,,,
17743,"Dūmų st.",54.693180,25.401370,,,17743,"http://www.visimarsrutai.lt/#/stop/result?stopId=17743",,,,,,
17744,"Žirmūnų seniūnija",54.722360,25.299940,,,17744,"http://www.visimarsrutai.lt/#/stop/result?stopId=17744",,,,,,
17745,"Žygio st.",54.704600,25.289460,,,17745,"http://www.visimarsrutai.lt/#/stop/result?stopId=17745",,,,,,
17746,Mileišiškės,54.711760,25.341740,,,17746,"http://www.visimarsrutai.lt/#/stop/result?stopId=17746",,,,,,
17749,Mileišiškės,54.711720,25.342090,,,17749,"http://www.visimarsrutai.lt/#/stop/result?stopId=17749",,,,,,
17750,Stotis,54.670250,25.283490,,,17750,"http://www.visimarsrutai.lt/#/stop/result?stopId=17750",,,,,,
17751,"Sakalaičių st.",54.612650,25.275450,,,17751,"http://www.visimarsrutai.lt/#/stop/result?stopId=17751",,,,,,
17752,Pušynas,54.733280,25.278800,,,17752,"http://www.visimarsrutai.lt/#/stop/result?stopId=17752",,,,,,
17753,"Tremtinių st.",54.693100,25.411410,,,17753,"http://www.visimarsrutai.lt/#/stop/result?stopId=17753",,,,,,
17754,Pervaža,54.609230,25.274670,,,17754,"http://www.visimarsrutai.lt/#/stop/result?stopId=17754",,,,,,
17755,"Pelesos st.",54.670850,25.289210,,,17755,"http://www.visimarsrutai.lt/#/stop/result?stopId=17755",,,,,,
17756,Pušynas,54.734360,25.278910,,,17756,"http://www.visimarsrutai.lt/#/stop/result?stopId=17756",,,,,,
17757,"Tyzenhauzų st.",54.656270,25.288590,,,17757,"http://www.visimarsrutai.lt/#/stop/result?stopId=17757",,,,,,
17758,Pervaža,54.609480,25.274560,,,17758,"http://www.visimarsrutai.lt/#/stop/result?stopId=17758",,,,,,
17759,"Širšių st.",54.695660,25.387740,,,17759,"http://www.visimarsrutai.lt/#/stop/result?stopId=17759",,,,,,
17760,"Širšių st.",54.695610,25.389300,,,17760,"http://www.visimarsrutai.lt/#/stop/result?stopId=17760",,,,,,
17761,"Vilniaus rajono poliklinika",54.723320,25.234000,,,17761,"http://www.visimarsrutai.lt/#/stop/result?stopId=17761",,,,,,
17762,"Juliaus Juzeliūno st.",54.730410,25.236840,,,17762,"http://www.visimarsrutai.lt/#/stop/result?stopId=17762",,,,,,
17763,"Čiobiškio st.",54.719460,25.232920,,,17763,"http://www.visimarsrutai.lt/#/stop/result?stopId=17763",,,,,,
17764,"Žirmūnų seniūnija",54.721900,25.300710,,,17764,"http://www.visimarsrutai.lt/#/stop/result?stopId=17764",,,,,,
17765,"Herkaus Manto st.",54.700680,25.286230,,,17765,"http://www.visimarsrutai.lt/#/stop/result?stopId=17765",,,,,,
17766,"Senoji plytinė",54.724030,25.339670,,,17766,"http://www.visimarsrutai.lt/#/stop/result?stopId=17766",,,,,,
17767,Kalvarijos,54.738540,25.276860,,,17767,"http://www.visimarsrutai.lt/#/stop/result?stopId=17767",,,,,,
17768,"Erfurto st.",54.673570,25.200620,,,17768,"http://www.visimarsrutai.lt/#/stop/result?stopId=17768",,,,,,
17769,"Dzūkų st.",54.665280,25.276510,,,17769,"http://www.visimarsrutai.lt/#/stop/result?stopId=17769",,,,,,
17770,"Melioratorių st.",54.605250,25.258380,,,17770,"http://www.visimarsrutai.lt/#/stop/result?stopId=17770",,,,,,
17771,Prašiškės,54.768170,25.271520,,,17771,"http://www.visimarsrutai.lt/#/stop/result?stopId=17771",,,,,,
17773,"Melioratorių st.",54.605120,25.260330,,,17773,"http://www.visimarsrutai.lt/#/stop/result?stopId=17773",,,,,,
17776,"Rudaminos st.",54.664280,25.280240,,,17776,"http://www.visimarsrutai.lt/#/stop/result?stopId=17776",,,,,,
17777,"Mildos st.",54.691470,25.343760,,,17777,"http://www.visimarsrutai.lt/#/stop/result?stopId=17777",,,,,,
17778,"Pavilnionių st.",54.735750,25.214490,,,17778,"http://www.visimarsrutai.lt/#/stop/result?stopId=17778",,,,,,
17779,Salininkai,54.605660,25.251610,,,17779,"http://www.visimarsrutai.lt/#/stop/result?stopId=17779",,,,,,
17780,Kalvarijos,54.739970,25.276770,,,17780,"http://www.visimarsrutai.lt/#/stop/result?stopId=17780",,,,,,
17781,„Sparta“,54.671800,25.268470,,,17781,"http://www.visimarsrutai.lt/#/stop/result?stopId=17781",,,,,,
17782,"Dzūkų st.",54.665820,25.275950,,,17782,"http://www.visimarsrutai.lt/#/stop/result?stopId=17782",,,,,,
17783,"Alberto Kojelavičiaus st.",54.695110,25.395300,,,17783,"http://www.visimarsrutai.lt/#/stop/result?stopId=17783",,,,,,
17784,„Sparta“,54.672620,25.269320,,,17784,"http://www.visimarsrutai.lt/#/stop/result?stopId=17784",,,,,,
17785,"Povilo Lukšio st.",54.710720,25.302390,,,17785,"http://www.visimarsrutai.lt/#/stop/result?stopId=17785",,,,,,
17786,"Rudaminos st.",54.664630,25.279750,,,17786,"http://www.visimarsrutai.lt/#/stop/result?stopId=17786",,,,,,
17787,"Mildos st.",54.693020,25.342100,,,17787,"http://www.visimarsrutai.lt/#/stop/result?stopId=17787",,,,,,
17788,Salininkai,54.605650,25.251180,,,17788,"http://www.visimarsrutai.lt/#/stop/result?stopId=17788",,,,,,
17789,"Bajorų sodai",54.757620,25.256710,,,17789,"http://www.visimarsrutai.lt/#/stop/result?stopId=17789",,,,,,
17790,Seminarija,54.735760,25.278010,,,17790,"http://www.visimarsrutai.lt/#/stop/result?stopId=17790",,,,,,
17791,"Aguonų st.",54.672630,25.278520,,,17791,"http://www.visimarsrutai.lt/#/stop/result?stopId=17791",,,,,,
17792,Seminarija,54.737020,25.277910,,,17792,"http://www.visimarsrutai.lt/#/stop/result?stopId=17792",,,,,,
17793,"Vilniaus st.",54.606110,25.270690,,,17793,"http://www.visimarsrutai.lt/#/stop/result?stopId=17793",,,,,,
17794,"Avinėlių st.",54.600910,25.273830,,,17794,"http://www.visimarsrutai.lt/#/stop/result?stopId=17794",,,,,,
17795,"Vilniaus st.",54.605660,25.269490,,,17795,"http://www.visimarsrutai.lt/#/stop/result?stopId=17795",,,,,,
17796,"Pelesos st.",54.670910,25.289610,,,17796,"http://www.visimarsrutai.lt/#/stop/result?stopId=17796",,,,,,
17797,"Rinktinės st.",54.695060,25.288090,,,17797,"http://www.visimarsrutai.lt/#/stop/result?stopId=17797",,,,,,
17798,"Avinėlių st.",54.600810,25.273580,,,17798,"http://www.visimarsrutai.lt/#/stop/result?stopId=17798",,,,,,
17799,"Panevėžio st.",54.668140,25.284760,,,17799,"http://www.visimarsrutai.lt/#/stop/result?stopId=17799",,,,,,
17800,"Panevėžio st.",54.667930,25.283680,,,17800,"http://www.visimarsrutai.lt/#/stop/result?stopId=17800",,,,,,
17801,"Prūsų st.",54.665220,25.272810,,,17801,"http://www.visimarsrutai.lt/#/stop/result?stopId=17801",,,,,,
17802,"Salininkų žiedas",54.614190,25.251970,,,17802,"http://www.visimarsrutai.lt/#/stop/result?stopId=17802",,,,,,
17803,"Krantinės st.",54.604120,25.191130,,,17803,"http://www.visimarsrutai.lt/#/stop/result?stopId=17803",,,,,,
17804,"Perlojos st.",54.664640,25.292250,,,17804,"http://www.visimarsrutai.lt/#/stop/result?stopId=17804",,,,,,
17807,"Žirnių st.",54.654580,25.301820,,,17807,"http://www.visimarsrutai.lt/#/stop/result?stopId=17807",,,,,,
17809,"Salininkų žiedas",54.614030,25.251820,,,17809,"http://www.visimarsrutai.lt/#/stop/result?stopId=17809",,,,,,
17810,Karklėnai,54.675630,25.414340,,,17810,"http://www.visimarsrutai.lt/#/stop/result?stopId=17810",,,,,,
17811,"Tyzenhauzų st.",54.655980,25.287870,,,17811,"http://www.visimarsrutai.lt/#/stop/result?stopId=17811",,,,,,
17812,"Karaimų kapinės",54.655110,25.297430,,,17812,"http://www.visimarsrutai.lt/#/stop/result?stopId=17812",,,,,,
17813,"Kelmiškių st.",54.749070,25.178620,,,17813,"http://www.visimarsrutai.lt/#/stop/result?stopId=17813",,,,,,
17814,"Pagrandos st.",54.746620,25.182680,,,17814,"http://www.visimarsrutai.lt/#/stop/result?stopId=17814",,,,,,
17815,"Giraitės st.",54.668980,25.237830,,,17815,"http://www.visimarsrutai.lt/#/stop/result?stopId=17815",,,,,,
17816,"Galvės st.",54.632470,25.150960,,,17816,"http://www.visimarsrutai.lt/#/stop/result?stopId=17816",,,,,,
17817,Karklėnai,54.675860,25.414560,,,17817,"http://www.visimarsrutai.lt/#/stop/result?stopId=17817",,,,,,
17818,"Pagrandos st.",54.746490,25.182510,,,17818,"http://www.visimarsrutai.lt/#/stop/result?stopId=17818",,,,,,
17820,"Erfurto st.",54.674480,25.200800,,,17820,"http://www.visimarsrutai.lt/#/stop/result?stopId=17820",,,,,,
17821,"Mechanikų st.",54.609700,25.251470,,,17821,"http://www.visimarsrutai.lt/#/stop/result?stopId=17821",,,,,,
17822,"Mechanikų st.",54.609680,25.251710,,,17822,"http://www.visimarsrutai.lt/#/stop/result?stopId=17822",,,,,,
17823,Belmontas,54.684030,25.320380,,,17823,"http://www.visimarsrutai.lt/#/stop/result?stopId=17823",,,,,,
17824,"Merkinės st.",54.664210,25.286220,,,17824,"http://www.visimarsrutai.lt/#/stop/result?stopId=17824",,,,,,
17825,"Merkinės st.",54.664170,25.287190,,,17825,"http://www.visimarsrutai.lt/#/stop/result?stopId=17825",,,,,,
17826,"Pavilnionių st.",54.735690,25.214970,,,17826,"http://www.visimarsrutai.lt/#/stop/result?stopId=17826",,,,,,
17827,"Perlojos st.",54.664230,25.293680,,,17827,"http://www.visimarsrutai.lt/#/stop/result?stopId=17827",,,,,,
17828,"Šešėlių st.",54.637600,25.135660,,,17828,"http://www.visimarsrutai.lt/#/stop/result?stopId=17828",,,,,,
17829,Grigaičiai,54.680950,25.413050,,,17829,"http://www.visimarsrutai.lt/#/stop/result?stopId=17829",,,,,,
17830,"Felikso Vaitkaus st.",54.643520,25.274010,,,17830,"http://www.visimarsrutai.lt/#/stop/result?stopId=17830",,,,,,
17831,"Šešėlių st.",54.637150,25.135630,,,17831,"http://www.visimarsrutai.lt/#/stop/result?stopId=17831",,,,,,
17832,"Liudvinavo st.",54.640150,25.135220,,,17832,"http://www.visimarsrutai.lt/#/stop/result?stopId=17832",,,,,,
17833,Grigaičiai,54.681560,25.412150,,,17833,"http://www.visimarsrutai.lt/#/stop/result?stopId=17833",,,,,,
17834,"Užupio st.",54.679940,25.292360,,,17834,"http://www.visimarsrutai.lt/#/stop/result?stopId=17834",,,,,,
17835,"Žemasis Pavilnys",54.679240,25.359340,,,17835,"http://www.visimarsrutai.lt/#/stop/result?stopId=17835",,,,,,
17836,"Asfalto st.",54.644800,25.134490,,,17836,"http://www.visimarsrutai.lt/#/stop/result?stopId=17836",,,,,,
17838,"Liudvinavo st.",54.640670,25.135220,,,17838,"http://www.visimarsrutai.lt/#/stop/result?stopId=17838",,,,,,
17839,Grigaičiai,54.681980,25.412630,,,17839,"http://www.visimarsrutai.lt/#/stop/result?stopId=17839",,,,,,
17840,"Užupio st.",54.679910,25.292660,,,17840,"http://www.visimarsrutai.lt/#/stop/result?stopId=17840",,,,,,
17841,"Zuikių st.",54.632420,25.198440,,,17841,"http://www.visimarsrutai.lt/#/stop/result?stopId=17841",,,,,,
17842,"Asfalto st.",54.645190,25.134630,,,17842,"http://www.visimarsrutai.lt/#/stop/result?stopId=17842",,,,,,
17843,"Žarijų st.",54.632390,25.140070,,,17843,"http://www.visimarsrutai.lt/#/stop/result?stopId=17843",,,,,,
17844,"Eišiškių plentas",54.651290,25.271770,,,17844,"http://www.visimarsrutai.lt/#/stop/result?stopId=17844",,,,,,
17845,"Eišiškių plentas",54.651480,25.271860,,,17845,"http://www.visimarsrutai.lt/#/stop/result?stopId=17845",,,,,,
17846,"Buivydiškių st.",54.713940,25.237430,,,17846,"http://www.visimarsrutai.lt/#/stop/result?stopId=17846",,,,,,
17847,"Jaunimo st.",54.669790,25.412270,,,17847,"http://www.visimarsrutai.lt/#/stop/result?stopId=17847",,,,,,
17848,"Dariaus ir Girėno st.",54.647190,25.273130,,,17848,"http://www.visimarsrutai.lt/#/stop/result?stopId=17848",,,,,,
17849,"Buivydiškių st.",54.713220,25.237890,,,17849,"http://www.visimarsrutai.lt/#/stop/result?stopId=17849",,,,,,
17850,"Žarijų st.",54.632230,25.140530,,,17850,"http://www.visimarsrutai.lt/#/stop/result?stopId=17850",,,,,,
17851,"Jaunimo st.",54.669940,25.412170,,,17851,"http://www.visimarsrutai.lt/#/stop/result?stopId=17851",,,,,,
17852,"Giraitės st.",54.668730,25.238170,,,17852,"http://www.visimarsrutai.lt/#/stop/result?stopId=17852",,,,,,
17853,"Kadugių st.",54.627430,25.179960,,,17853,"http://www.visimarsrutai.lt/#/stop/result?stopId=17853",,,,,,
17854,"Respublikinė psichiatrijos ligoninė",54.685940,25.418680,,,17854,"http://www.visimarsrutai.lt/#/stop/result?stopId=17854",,,,,,
17855,Prašiškės,54.768600,25.271830,,,17855,"http://www.visimarsrutai.lt/#/stop/result?stopId=17855",,,,,,
17856,"Kadugių st.",54.626740,25.181540,,,17856,"http://www.visimarsrutai.lt/#/stop/result?stopId=17856",,,,,,
17857,"Respublikinė psichiatrijos ligoninė",54.685630,25.419330,,,17857,"http://www.visimarsrutai.lt/#/stop/result?stopId=17857",,,,,,
17858,"Parko st.",54.685610,25.424490,,,17858,"http://www.visimarsrutai.lt/#/stop/result?stopId=17858",,,,,,
17859,"Ozo žiedas",54.715390,25.277300,,,17859,"http://www.visimarsrutai.lt/#/stop/result?stopId=17859",,,,,,
17860,"Vasarotojų st.",54.625220,25.185180,,,17860,"http://www.visimarsrutai.lt/#/stop/result?stopId=17860",,,,,,
17861,"Mūrinė Vokė",54.648280,25.121760,,,17861,"http://www.visimarsrutai.lt/#/stop/result?stopId=17861",,,,,,
17862,"Parko st.",54.685500,25.426100,,,17862,"http://www.visimarsrutai.lt/#/stop/result?stopId=17862",,,,,,
17863,Licėjus,54.713140,25.276920,,,17863,"http://www.visimarsrutai.lt/#/stop/result?stopId=17863",,,,,,
17864,"Naujosios Vilnios žiedas",54.685930,25.429960,,,17864,"http://www.visimarsrutai.lt/#/stop/result?stopId=17864",,,,,,
17865,"Rytų st.",54.689560,25.432740,,,17865,"http://www.visimarsrutai.lt/#/stop/result?stopId=17865",,,,,,
17866,Balsiai,54.786040,25.347760,,,17866,"http://www.visimarsrutai.lt/#/stop/result?stopId=17866",,,,,,
17867,"Rytų st.",54.690440,25.433740,,,17867,"http://www.visimarsrutai.lt/#/stop/result?stopId=17867",,,,,,
17868,"Ozo žiedas",54.714650,25.277700,,,17868,"http://www.visimarsrutai.lt/#/stop/result?stopId=17868",,,,,,
17869,Liudvinava,54.647050,25.128370,,,17869,"http://www.visimarsrutai.lt/#/stop/result?stopId=17869",,,,,,
17870,Kirtimai,54.637480,25.274660,,,17870,"http://www.visimarsrutai.lt/#/stop/result?stopId=17870",,,,,,
17871,"Genių st.",54.688270,25.412550,,,17871,"http://www.visimarsrutai.lt/#/stop/result?stopId=17871",,,,,,
17872,Liudvinava,54.647160,25.128160,,,17872,"http://www.visimarsrutai.lt/#/stop/result?stopId=17872",,,,,,
17873,"Tiekimo st.",54.633230,25.273230,,,17873,"http://www.visimarsrutai.lt/#/stop/result?stopId=17873",,,,,,
17874,"Genių st.",54.687980,25.413240,,,17874,"http://www.visimarsrutai.lt/#/stop/result?stopId=17874",,,,,,
17875,"Šveicarų st.",54.635090,25.326570,,,17875,"http://www.visimarsrutai.lt/#/stop/result?stopId=17875",,,,,,
17876,"Vasarotojų st.",54.624970,25.185910,,,17876,"http://www.visimarsrutai.lt/#/stop/result?stopId=17876",,,,,,
17877,"Jankos Kupalos st.",54.694320,25.401680,,,17877,"http://www.visimarsrutai.lt/#/stop/result?stopId=17877",,,,,,
17879,"Šiaurės miestelis",54.711520,25.297860,,,17879,"http://www.visimarsrutai.lt/#/stop/result?stopId=17879",,,,,,
17880,"Ievų st.",54.694330,25.408380,,,17880,"http://www.visimarsrutai.lt/#/stop/result?stopId=17880",,,,,,
17882,"Jankos Kupalos st.",54.694450,25.401400,,,17882,"http://www.visimarsrutai.lt/#/stop/result?stopId=17882",,,,,,
17883,"Miškinių sodai",54.588850,25.237200,,,17883,"http://www.visimarsrutai.lt/#/stop/result?stopId=17883",,,,,,
17884,"Ievų st.",54.694300,25.406980,,,17884,"http://www.visimarsrutai.lt/#/stop/result?stopId=17884",,,,,,
17885,"Šiaurės miestelis",54.711190,25.299380,,,17885,"http://www.visimarsrutai.lt/#/stop/result?stopId=17885",,,,,,
17886,"Gandrų st.",54.695160,25.414670,,,17886,"http://www.visimarsrutai.lt/#/stop/result?stopId=17886",,,,,,
17887,"Vokės parkas",54.595250,25.219190,,,17887,"http://www.visimarsrutai.lt/#/stop/result?stopId=17887",,,,,,
17888,Kulokiškės,54.645640,25.142270,,,17888,"http://www.visimarsrutai.lt/#/stop/result?stopId=17888",,,,,,
17890,"Nacionalinė dailės galerija",54.696710,25.273110,,,17890,"http://www.visimarsrutai.lt/#/stop/result?stopId=17890",,,,,,
17891,Kulokiškės,54.645380,25.143950,,,17891,"http://www.visimarsrutai.lt/#/stop/result?stopId=17891",,,,,,
17892,"Papilėnų st.",54.707530,25.187810,,,17892,"http://www.visimarsrutai.lt/#/stop/result?stopId=17892",,,,,,
17893,"Vanaginės žiedas",54.781340,25.272870,,,17893,"http://www.visimarsrutai.lt/#/stop/result?stopId=17893",,,,,,
17894,"Kauno plentas",54.655240,25.150880,,,17894,"http://www.visimarsrutai.lt/#/stop/result?stopId=17894",,,,,,
17895,"Linksmoji st.",54.695080,25.435930,,,17895,"http://www.visimarsrutai.lt/#/stop/result?stopId=17895",,,,,,
17896,"Nacionalinė dailės galerija",54.697930,25.270030,,,17896,"http://www.visimarsrutai.lt/#/stop/result?stopId=17896",,,,,,
17897,"Linksmoji st.",54.695180,25.436040,,,17897,"http://www.visimarsrutai.lt/#/stop/result?stopId=17897",,,,,,
17898,"Bičių st.",54.697350,25.428370,,,17898,"http://www.visimarsrutai.lt/#/stop/result?stopId=17898",,,,,,
17899,"Ąžuolų st.",54.721710,25.193390,,,17899,"http://www.visimarsrutai.lt/#/stop/result?stopId=17899",,,,,,
17900,"Naujosios Gineitiškės",54.735830,25.202390,,,17900,"http://www.visimarsrutai.lt/#/stop/result?stopId=17900",,,,,,
17901,"Rugiagėlių st.",54.696080,25.420210,,,17901,"http://www.visimarsrutai.lt/#/stop/result?stopId=17901",,,,,,
17902,"Bičių st.",54.697680,25.429660,,,17902,"http://www.visimarsrutai.lt/#/stop/result?stopId=17902",,,,,,
17903,"Ąžuolų st.",54.720500,25.194730,,,17903,"http://www.visimarsrutai.lt/#/stop/result?stopId=17903",,,,,,
17904,"Užkiemio st.",54.699080,25.432830,,,17904,"http://www.visimarsrutai.lt/#/stop/result?stopId=17904",,,,,,
17905,Naujaneriai,54.801730,25.348410,,,17905,"http://www.visimarsrutai.lt/#/stop/result?stopId=17905",,,,,,
17906,"Užkiemio st.",54.698890,25.432810,,,17906,"http://www.visimarsrutai.lt/#/stop/result?stopId=17906",,,,,,
17907,Kryžiokai,54.792190,25.351180,,,17907,"http://www.visimarsrutai.lt/#/stop/result?stopId=17907",,,,,,
17908,Krakiškės,54.795940,25.349920,,,17908,"http://www.visimarsrutai.lt/#/stop/result?stopId=17908",,,,,,
17909,"2-ieji Juodšiliai",54.585160,25.260400,,,17909,"http://www.visimarsrutai.lt/#/stop/result?stopId=17909",,,,,,
17910,"Felikso Vaitkaus st.",54.644780,25.273570,,,17910,"http://www.visimarsrutai.lt/#/stop/result?stopId=17910",,,,,,
17911,Antežeriai,54.733770,25.186490,,,17911,"http://www.visimarsrutai.lt/#/stop/result?stopId=17911",,,,,,
17912,"2-ieji Juodšiliai",54.585010,25.262160,,,17912,"http://www.visimarsrutai.lt/#/stop/result?stopId=17912",,,,,,
17913,"Gandrų st.",54.695210,25.414340,,,17913,"http://www.visimarsrutai.lt/#/stop/result?stopId=17913",,,,,,
17914,Zujūnai,54.726620,25.182090,,,17914,"http://www.visimarsrutai.lt/#/stop/result?stopId=17914",,,,,,
17915,"Miškinių sodai",54.589930,25.234540,,,17915,"http://www.visimarsrutai.lt/#/stop/result?stopId=17915",,,,,,
17916,"Rugiagėlių st.",54.696260,25.421810,,,17916,"http://www.visimarsrutai.lt/#/stop/result?stopId=17916",,,,,,
17917,Antežeriai,54.732550,25.185270,,,17917,"http://www.visimarsrutai.lt/#/stop/result?stopId=17917",,,,,,
17918,"Bijūnų st.",54.667400,25.215880,,,17918,"http://www.visimarsrutai.lt/#/stop/result?stopId=17918",,,,,,
17919,Pagubė,54.807960,25.313200,,,17919,"http://www.visimarsrutai.lt/#/stop/result?stopId=17919",,,,,,
17920,"Gulbinų st.",54.805840,25.318920,,,17920,"http://www.visimarsrutai.lt/#/stop/result?stopId=17920",,,,,,
17921,Diemedis,54.802890,25.329740,,,17921,"http://www.visimarsrutai.lt/#/stop/result?stopId=17921",,,,,,
17922,"Lakštingalų st.",54.728800,25.328830,,,17922,"http://www.visimarsrutai.lt/#/stop/result?stopId=17922",,,,,,
17923,Paežerys,54.800120,25.335340,,,17923,"http://www.visimarsrutai.lt/#/stop/result?stopId=17923",,,,,,
17924,"Kaimelio žiedas",54.731410,25.244300,,,17924,"http://www.visimarsrutai.lt/#/stop/result?stopId=17924",,,,,,
17925,"Gulbinų st.",54.805600,25.319760,,,17925,"http://www.visimarsrutai.lt/#/stop/result?stopId=17925",,,,,,
17926,Sakališkės,54.814690,25.321870,,,17926,"http://www.visimarsrutai.lt/#/stop/result?stopId=17926",,,,,,
17927,"Lazerių st.",54.729370,25.374760,,,17927,"http://www.visimarsrutai.lt/#/stop/result?stopId=17927",,,,,,
17928,"Naujosios Vilnios žiedas",54.685580,25.428110,,,17928,"http://www.visimarsrutai.lt/#/stop/result?stopId=17928",,,,,,
17929,Paežerys,54.800300,25.336110,,,17929,"http://www.visimarsrutai.lt/#/stop/result?stopId=17929",,,,,,
17930,Diemedis,54.803230,25.329580,,,17930,"http://www.visimarsrutai.lt/#/stop/result?stopId=17930",,,,,,
17931,"Grybautojų st.",54.733300,25.317560,,,17931,"http://www.visimarsrutai.lt/#/stop/result?stopId=17931",,,,,,
17932,Bireliai,54.820990,25.320520,,,17932,"http://www.visimarsrutai.lt/#/stop/result?stopId=17932",,,,,,
17933,"Birelių žiedas",54.823360,25.330300,,,17933,"http://www.visimarsrutai.lt/#/stop/result?stopId=17933",,,,,,
17934,Stotis,54.671150,25.285130,,,17934,"http://www.visimarsrutai.lt/#/stop/result?stopId=17934",,,,,,
17935,Kryžiokai,54.791610,25.351270,,,17935,"http://www.visimarsrutai.lt/#/stop/result?stopId=17935",,,,,,
17936,"Fermentų st.",54.626540,25.139320,,,17936,"http://www.visimarsrutai.lt/#/stop/result?stopId=17936",,,,,,
17937,"Jurgio Baltrušaičio st.",54.729440,25.237380,,,17937,"http://www.visimarsrutai.lt/#/stop/result?stopId=17937",,,,,,
17938,"Kaimelio st.",54.730590,25.244480,,,17938,"http://www.visimarsrutai.lt/#/stop/result?stopId=17938",,,,,,
17939,"Lakštingalų st.",54.729980,25.331120,,,17939,"http://www.visimarsrutai.lt/#/stop/result?stopId=17939",,,,,,
17941,Kalnėnai,54.654600,25.331640,,,17941,"http://www.visimarsrutai.lt/#/stop/result?stopId=17941",,,,,,
17942,Stotis,54.670660,25.283130,,,17942,"http://www.visimarsrutai.lt/#/stop/result?stopId=17942",,,,,,
17943,"Žuvėdrų st.",54.731330,25.324670,,,17943,"http://www.visimarsrutai.lt/#/stop/result?stopId=17943",,,,,,
17944,"Žaros st.",54.666720,25.195810,,,17944,"http://www.visimarsrutai.lt/#/stop/result?stopId=17944",,,,,,
17946,"Žuvėdrų st.",54.731400,25.324140,,,17946,"http://www.visimarsrutai.lt/#/stop/result?stopId=17946",,,,,,
17947,Krakiškės,54.795220,25.350030,,,17947,"http://www.visimarsrutai.lt/#/stop/result?stopId=17947",,,,,,
17948,"Grybautojų st.",54.732950,25.318200,,,17948,"http://www.visimarsrutai.lt/#/stop/result?stopId=17948",,,,,,
17949,"Neravų st.",54.668640,25.111740,,,17949,"http://www.visimarsrutai.lt/#/stop/result?stopId=17949",,,,,,
17950,"Agrastų st.",54.629430,25.177030,,,17950,"http://www.visimarsrutai.lt/#/stop/result?stopId=17950",,,,,,
17951,"Pašilaičių žiedas",54.728420,25.234300,,,17951,"http://www.visimarsrutai.lt/#/stop/result?stopId=17951",,,,,,
17952,"Mėlynių st.",54.739690,25.315690,,,17952,"http://www.visimarsrutai.lt/#/stop/result?stopId=17952",,,,,,
17953,"Kaimelio žiedas",54.731550,25.244880,,,17953,"http://www.visimarsrutai.lt/#/stop/result?stopId=17953",,,,,,
17954,"Kazbėjų žiedas",54.616600,25.138010,,,17954,"http://www.visimarsrutai.lt/#/stop/result?stopId=17954",,,,,,
17955,"Meškeriotojų st.",54.746210,25.320170,,,17955,"http://www.visimarsrutai.lt/#/stop/result?stopId=17955",,,,,,
17956,"Meškeriotojų st.",54.745850,25.319770,,,17956,"http://www.visimarsrutai.lt/#/stop/result?stopId=17956",,,,,,
17957,Laidagaliai,54.746650,25.190870,,,17957,"http://www.visimarsrutai.lt/#/stop/result?stopId=17957",,,,,,
17959,"Tomo Žebrausko st.",54.748300,25.200300,,,17959,"http://www.visimarsrutai.lt/#/stop/result?stopId=17959",,,,,,
17960,Tarandė,54.749320,25.207240,,,17960,"http://www.visimarsrutai.lt/#/stop/result?stopId=17960",,,,,,
17961,Laidagaliai,54.746850,25.190020,,,17961,"http://www.visimarsrutai.lt/#/stop/result?stopId=17961",,,,,,
17962,"Tomo Žebrausko st.",54.748000,25.199640,,,17962,"http://www.visimarsrutai.lt/#/stop/result?stopId=17962",,,,,,
17963,Tarandė,54.749380,25.208120,,,17963,"http://www.visimarsrutai.lt/#/stop/result?stopId=17963",,,,,,
17964,"Papilėnų st.",54.708160,25.186510,,,17964,"http://www.visimarsrutai.lt/#/stop/result?stopId=17964",,,,,,
17966,"Pakalniškių st.",54.654530,25.225130,,,17966,"http://www.visimarsrutai.lt/#/stop/result?stopId=17966",,,,,,
17967,"Smalinės st.",54.708550,25.187920,,,17967,"http://www.visimarsrutai.lt/#/stop/result?stopId=17967",,,,,,
17969,"Karaliaučiaus st.",54.707980,25.175100,,,17969,"http://www.visimarsrutai.lt/#/stop/result?stopId=17969",,,,,,
17970,Pilaitė,54.702470,25.203450,,,17970,"http://www.visimarsrutai.lt/#/stop/result?stopId=17970",,,,,,
17971,"Perkūno st.",54.739360,25.227200,,,17971,"http://www.visimarsrutai.lt/#/stop/result?stopId=17971",,,,,,
17972,"Perkūno st.",54.739360,25.227740,,,17972,"http://www.visimarsrutai.lt/#/stop/result?stopId=17972",,,,,,
17974,"Raistelių miškas",54.611270,25.230160,,,17974,"http://www.visimarsrutai.lt/#/stop/result?stopId=17974",,,,,,
17975,"Raistelių miškas",54.611120,25.231050,,,17975,"http://www.visimarsrutai.lt/#/stop/result?stopId=17975",,,,,,
17976,"Jono Biliūno st.",54.794250,25.391540,,,17976,"http://www.visimarsrutai.lt/#/stop/result?stopId=17976",,,,,,
17977,"Lazdynų ligoninė",54.669070,25.206620,,,17977,"http://www.visimarsrutai.lt/#/stop/result?stopId=17977",,,,,,
17978,Stotis,54.670850,25.283360,,,17978,"http://www.visimarsrutai.lt/#/stop/result?stopId=17978",,,,,,
17979,Stotis,54.671150,25.283280,,,17979,"http://www.visimarsrutai.lt/#/stop/result?stopId=17979",,,,,,
17981,"Antano Jonyno st.",54.731370,25.247440,,,17981,"http://www.visimarsrutai.lt/#/stop/result?stopId=17981",,,,,,
17982,"Antano Jonyno st.",54.731560,25.248930,,,17982,"http://www.visimarsrutai.lt/#/stop/result?stopId=17982",,,,,,
17983,"Kaimelio žiedas",54.731600,25.244460,,,17983,"http://www.visimarsrutai.lt/#/stop/result?stopId=17983",,,,,,
17984,"Kaimelio st.",54.730660,25.246210,,,17984,"http://www.visimarsrutai.lt/#/stop/result?stopId=17984",,,,,,
20081,Vaduvos,54.644370,25.206463,,,20081,"http://www.visimarsrutai.lt/#/stop/result?stopId=20081",,,,,,
20091,"Molėtų plentas",54.749732,25.278288,,,20091,"http://www.visimarsrutai.lt/#/stop/result?stopId=20091",,,,,,
20092,"Molėtų plentas",54.750337,25.277285,,,20092,"http://www.visimarsrutai.lt/#/stop/result?stopId=20092",,,,,,
20989,Vaduvos,54.644807,25.207073,,,20989,"http://www.visimarsrutai.lt/#/stop/result?stopId=20989",,,,,,
21414,Eigulių,54.668979,25.235572,,,21414,"http://www.visimarsrutai.lt/#/stop/result?stopId=21414",,,,,,
21416,Gariūnai,54.658899,25.159009,,,21416,"http://www.visimarsrutai.lt/#/stop/result?stopId=21416",,,,,,
21417,Žemaitės,54.674959,25.251833,,,21417,"http://www.visimarsrutai.lt/#/stop/result?stopId=21417",,,,,,
21418,"Gedimino prospektas",54.689014,25.262100,,,21418,"http://www.visimarsrutai.lt/#/stop/result?stopId=21418",,,,,,
21427,"Trakų vokė",54.624074,25.112675,,,21427,"http://www.visimarsrutai.lt/#/stop/result?stopId=21427",,,,,,
21444,Gariūnai,54.659055,25.160594,,,21444,"http://www.visimarsrutai.lt/#/stop/result?stopId=21444",,,,,,
23534,"Lydos st.",54.625451,25.305544,,,23534,"http://www.visimarsrutai.lt/#/stop/result?stopId=23534",,,,,,
23535,"Lydos st.",54.625329,25.305401,,,23535,"http://www.visimarsrutai.lt/#/stop/result?stopId=23535",,,,,,
23601,"Miško parkas",54.636828,25.303029,,,23601,"http://www.visimarsrutai.lt/#/stop/result?stopId=23601",,,,,,
23602,"Miško parkas",54.636227,25.303256,,,23602,"http://www.visimarsrutai.lt/#/stop/result?stopId=23602",,,,,,
23605,"Žirnių st.",54.654964,25.303038,,,23605,"http://www.visimarsrutai.lt/#/stop/result?stopId=23605",,,,,,
23606,"Žirnių st.",54.653180,25.302653,,,23606,"http://www.visimarsrutai.lt/#/stop/result?stopId=23606",,,,,,
23607,"Pelesos st.",54.671501,25.291548,,,23607,"http://www.visimarsrutai.lt/#/stop/result?stopId=23607",,,,,,
23608,"Pelesos st.",54.671187,25.291111,,,23608,"http://www.visimarsrutai.lt/#/stop/result?stopId=23608",,,,,,
23763,"Kilimų fabrikas",54.654065,25.046097,,,23763,"http://www.visimarsrutai.lt/#/stop/result?stopId=23763",,,,,,
24417,Antaviliai,54.798302,25.396712,,,24417,"http://www.visimarsrutai.lt/#/stop/result?stopId=24417",,,,,,
24418,Antaviliai,54.798759,25.397930,,,24418,"http://www.visimarsrutai.lt/#/stop/result?stopId=24418",,,,,,
24421,Šilas,54.782202,25.383340,,,24421,"http://www.visimarsrutai.lt/#/stop/result?stopId=24421",,,,,,
24422,Šilas,54.783262,25.383763,,,24422,"http://www.visimarsrutai.lt/#/stop/result?stopId=24422",,,,,,
24423,Karačiūnai,54.772211,25.382127,,,24423,"http://www.visimarsrutai.lt/#/stop/result?stopId=24423",,,,,,
24424,Karačiūnai,54.773189,25.383106,,,24424,"http://www.visimarsrutai.lt/#/stop/result?stopId=24424",,,,,,
24426,Veržuvos,54.761619,25.372770,,,24426,"http://www.visimarsrutai.lt/#/stop/result?stopId=24426",,,,,,
24427,Smėlynė,54.754596,25.365586,,,24427,"http://www.visimarsrutai.lt/#/stop/result?stopId=24427",,,,,,
24428,Smėlynė,54.754474,25.365047,,,24428,"http://www.visimarsrutai.lt/#/stop/result?stopId=24428",,,,,,
24452,"Pramogų arena",54.716059,25.286871,,,24452,"http://www.visimarsrutai.lt/#/stop/result?stopId=24452",,,,,,
24453,"Pramogų arena",54.714344,25.286718,,,24453,"http://www.visimarsrutai.lt/#/stop/result?stopId=24453",,,,,,
24454,Jeruzalė,54.743995,25.277762,,,24454,"http://www.visimarsrutai.lt/#/stop/result?stopId=24454",,,,,,
24455,Jeruzalė,54.742807,25.276862,,,24455,"http://www.visimarsrutai.lt/#/stop/result?stopId=24455",,,,,,
24461,"Didžioji Riešė",54.806089,25.256826,,,24461,"http://www.visimarsrutai.lt/#/stop/result?stopId=24461",,,,,,
24466,Baltupiai,54.727060,25.279960,,,24466,"http://www.visimarsrutai.lt/#/stop/result?stopId=24466",,,,,,
24467,Skersinė,54.765395,25.271864,,,24467,"http://www.visimarsrutai.lt/#/stop/result?stopId=24467",,,,,,
24491,Vanaginė,54.773933,25.272026,,,24491,"http://www.visimarsrutai.lt/#/stop/result?stopId=24491",,,,,,
27136,"Vikingų slėnis",54.653040,25.280450,,,27136,"http://www.visimarsrutai.lt/#/stop/result?stopId=27136",,,,,,
27137,"Samanų st.",54.787140,25.269070,,,27137,"http://www.visimarsrutai.lt/#/stop/result?stopId=27137",,,,,,
27138,"Lauko st.",54.792210,25.265970,,,27138,"http://www.visimarsrutai.lt/#/stop/result?stopId=27138",,,,,,
27139,"Kaštonų st.",54.798360,25.262110,,,27139,"http://www.visimarsrutai.lt/#/stop/result?stopId=27139",,,,,,
27140,"Beržų st.",54.807820,25.247380,,,27140,"http://www.visimarsrutai.lt/#/stop/result?stopId=27140",,,,,,
27141,"Lauko st.",54.793150,25.265820,,,27141,"http://www.visimarsrutai.lt/#/stop/result?stopId=27141",,,,,,
27142,"Kaštonų st.",54.798150,25.262130,,,27142,"http://www.visimarsrutai.lt/#/stop/result?stopId=27142",,,,,,
27143,"Riešės gimnazija",54.808760,25.233300,,,27143,"http://www.visimarsrutai.lt/#/stop/result?stopId=27143",,,,,,
27146,"Gynėjų st.",54.693490,25.265570,,,27146,"http://www.visimarsrutai.lt/#/stop/result?stopId=27146",,,,,,
27148,"Ežero st.",54.809160,25.227660,,,27148,"http://www.visimarsrutai.lt/#/stop/result?stopId=27148",,,,,,
27149,"Ežero st.",54.808920,25.225330,,,27149,"http://www.visimarsrutai.lt/#/stop/result?stopId=27149",,,,,,
27150,"Loretos Asanavičiūtės st.",54.683180,25.199420,,,27150,"http://www.visimarsrutai.lt/#/stop/result?stopId=27150",,,,,,
27151,"Loretos Asanavičiūtės st.",54.683320,25.199080,,,27151,"http://www.visimarsrutai.lt/#/stop/result?stopId=27151",,,,,,
27154,"Klonio st.",54.705860,25.371120,,,27154,"http://www.visimarsrutai.lt/#/stop/result?stopId=27154",,,,,,
27155,"Klonio st.",54.705820,25.371000,,,27155,"http://www.visimarsrutai.lt/#/stop/result?stopId=27155",,,,,,
27156,"Bajorų miškas",54.756330,25.242330,,,27156,"http://www.visimarsrutai.lt/#/stop/result?stopId=27156",,,,,,
27157,"Bajorų miškas",54.756260,25.242500,,,27157,"http://www.visimarsrutai.lt/#/stop/result?stopId=27157",,,,,,
27160,Durpynas,54.770310,25.195930,,,27160,"http://www.visimarsrutai.lt/#/stop/result?stopId=27160",,,,,,
27161,"Kooperatyvo st.",54.801800,25.259810,,,27161,"http://www.visimarsrutai.lt/#/stop/result?stopId=27161",,,,,,
27162,"Kooperatyvo st.",54.801070,25.260020,,,27162,"http://www.visimarsrutai.lt/#/stop/result?stopId=27162",,,,,,
27165,"Ungurių st.",54.653540,25.208510,,,27165,"http://www.visimarsrutai.lt/#/stop/result?stopId=27165",,,,,,
27167,"Beržų st.",54.807610,25.248980,,,27167,"http://www.visimarsrutai.lt/#/stop/result?stopId=27167",,,,,,
27168,"Mažoji Riešė",54.802590,25.202620,,,27168,"http://www.visimarsrutai.lt/#/stop/result?stopId=27168",,,,,,
27169,"Riešės gimnazija",54.808520,25.234680,,,27169,"http://www.visimarsrutai.lt/#/stop/result?stopId=27169",,,,,,
27172,Bendoriai,54.795040,25.197820,,,27172,"http://www.visimarsrutai.lt/#/stop/result?stopId=27172",,,,,,
27173,"Mažoji Riešė",54.802570,25.201640,,,27173,"http://www.visimarsrutai.lt/#/stop/result?stopId=27173",,,,,,
27175,Klevinė,54.780700,25.193170,,,27175,"http://www.visimarsrutai.lt/#/stop/result?stopId=27175",,,,,,
27176,Bendoriai,54.794460,25.197280,,,27176,"http://www.visimarsrutai.lt/#/stop/result?stopId=27176",,,,,,
27177,Bendorėliai,54.790550,25.195650,,,27177,"http://www.visimarsrutai.lt/#/stop/result?stopId=27177",,,,,,
27178,Klevinė,54.779370,25.192720,,,27178,"http://www.visimarsrutai.lt/#/stop/result?stopId=27178",,,,,,
27179,Durpynas,54.770860,25.195840,,,27179,"http://www.visimarsrutai.lt/#/stop/result?stopId=27179",,,,,,
27181,"Sidaronių st.",54.708810,25.202980,,,27181,"http://www.visimarsrutai.lt/#/stop/result?stopId=27181",,,,,,
27182,"Sidaronių st.",54.707950,25.203580,,,27182,"http://www.visimarsrutai.lt/#/stop/result?stopId=27182",,,,,,
27183,"Kiparisų st.",54.783250,25.271730,,,27183,"http://www.visimarsrutai.lt/#/stop/result?stopId=27183",,,,,,
27184,"Samanų st.",54.786410,25.269380,,,27184,"http://www.visimarsrutai.lt/#/stop/result?stopId=27184",,,,,,
27185,"Kiparisų st.",54.782190,25.271960,,,27185,"http://www.visimarsrutai.lt/#/stop/result?stopId=27185",,,,,,
27202,Vaidotai,54.598787,25.176281,,,27202,"http://www.visimarsrutai.lt/#/stop/result?stopId=27202",,,,,,
27203,Sparta,54.670975,25.269599,,,27203,"http://www.visimarsrutai.lt/#/stop/result?stopId=27203",,,,,,
27204,Sparta,54.671874,25.270013,,,27204,"http://www.visimarsrutai.lt/#/stop/result?stopId=27204",,,,,,
27205,Naujininkai,54.660980,25.273249,,,27205,"http://www.visimarsrutai.lt/#/stop/result?stopId=27205",,,,,,
27207,Metalo,54.645689,25.264933,,,27207,"http://www.visimarsrutai.lt/#/stop/result?stopId=27207",,,,,,
27208,Metalo,54.646483,25.265868,,,27208,"http://www.visimarsrutai.lt/#/stop/result?stopId=27208",,,,,,
27209,Dilgynė,54.634781,25.253987,,,27209,"http://www.visimarsrutai.lt/#/stop/result?stopId=27209",,,,,,
27210,Dilgynė,54.634478,25.253839,,,27210,"http://www.visimarsrutai.lt/#/stop/result?stopId=27210",,,,,,
27211,Ąžuolijai,54.621586,25.242371,,,27211,"http://www.visimarsrutai.lt/#/stop/result?stopId=27211",,,,,,
27212,Ąžuolijai,54.621978,25.244006,,,27212,"http://www.visimarsrutai.lt/#/stop/result?stopId=27212",,,,,,
27213,Šaltinio,54.601381,25.182172,,,27213,"http://www.visimarsrutai.lt/#/stop/result?stopId=27213",,,,,,
27214,Šaltinio,54.601640,25.182925,,,27214,"http://www.visimarsrutai.lt/#/stop/result?stopId=27214",,,,,,
27223,Guriai,54.662414,25.342655,,,27223,"http://www.visimarsrutai.lt/#/stop/result?stopId=27223",,,,,,
27224,Guriai,54.662764,25.340272,,,27224,"http://www.visimarsrutai.lt/#/stop/result?stopId=27224",,,,,,
27226,Dunojaus,54.666444,25.307210,,,27226,"http://www.visimarsrutai.lt/#/stop/result?stopId=27226",,,,,,
27230,Statybininkų,54.672623,25.255796,,,27230,"http://www.visimarsrutai.lt/#/stop/result?stopId=27230",,,,,,
27231,Statybininkų,54.671221,25.257508,,,27231,"http://www.visimarsrutai.lt/#/stop/result?stopId=27231",,,,,,
27234,Saltoniškės,54.702289,25.261737,,,27234,"http://www.visimarsrutai.lt/#/stop/result?stopId=27234",,,,,,
27235,Saltoniškės,54.701355,25.262833,,,27235,"http://www.visimarsrutai.lt/#/stop/result?stopId=27235",,,,,,
27236,"Šeškinės poliklinika",54.715592,25.247161,,,27236,"http://www.visimarsrutai.lt/#/stop/result?stopId=27236",,,,,,
27237,"J. Baltrušaičiio",54.728917,25.239666,,,27237,"http://www.visimarsrutai.lt/#/stop/result?stopId=27237",,,,,,
27239,"S. Lozoraičio",54.724298,25.242573,,,27239,"http://www.visimarsrutai.lt/#/stop/result?stopId=27239",,,,,,
27240,"S. Lozoraičio",54.723909,25.242520,,,27240,"http://www.visimarsrutai.lt/#/stop/result?stopId=27240",,,,,,
27243,Pavilionys,54.741957,25.223847,,,27243,"http://www.visimarsrutai.lt/#/stop/result?stopId=27243",,,,,,
27244,Pavilionys,54.742075,25.223456,,,27244,"http://www.visimarsrutai.lt/#/stop/result?stopId=27244",,,,,,
27245,Medelynas,54.749746,25.214809,,,27245,"http://www.visimarsrutai.lt/#/stop/result?stopId=27245",,,,,,
27545,Baltupiai,54.728066,25.280067,,,27545,"http://www.visimarsrutai.lt/#/stop/result?stopId=27545",,,,,,
27548,Skersinė,54.764424,25.271749,,,27548,"http://www.visimarsrutai.lt/#/stop/result?stopId=27548",,,,,,
27562,"D. Riešė",54.807058,25.256670,,,27562,"http://www.visimarsrutai.lt/#/stop/result?stopId=27562",,,,,,
28150,Naujaneriai,54.801859,25.349056,,,28150,"http://www.visimarsrutai.lt/#/stop/result?stopId=28150",,,,,,
28152,"Verkių Riešė",54.777296,25.337824,,,28152,"http://www.visimarsrutai.lt/#/stop/result?stopId=28152",,,,,,
28153,"Verkių Riešė",54.777068,25.337290,,,28153,"http://www.visimarsrutai.lt/#/stop/result?stopId=28153",,,,,,
28155,"Verkių rūmai",54.752299,25.296233,,,28155,"http://www.visimarsrutai.lt/#/stop/result?stopId=28155",,,,,,
28157,"Žaliųjų ežerų",54.748537,25.279229,,,28157,"http://www.visimarsrutai.lt/#/stop/result?stopId=28157",,,,,,
28226,"Antakalnio žiedas",54.722889,25.318992,,,28226,"http://www.visimarsrutai.lt/#/stop/result?stopId=28226",,,,,,
28564,Juozapiškės,54.809470,25.352370,,,28564,"http://www.visimarsrutai.lt/#/stop/result?stopId=28564",,,,,,
28565,Juozapiškės,54.806980,25.352800,,,28565,"http://www.visimarsrutai.lt/#/stop/result?stopId=28565",,,,,,
28571,Skirgiškės,54.828650,25.364100,,,28571,"http://www.visimarsrutai.lt/#/stop/result?stopId=28571",,,,,,
28688,"Austėjos st.",54.778170,25.346150,,,28688,"http://www.visimarsrutai.lt/#/stop/result?stopId=28688",,,,,,
28689,"Austėjos st.",54.778230,25.345540,,,28689,"http://www.visimarsrutai.lt/#/stop/result?stopId=28689",,,,,,
28690,"Žalčių st.",54.778040,25.352620,,,28690,"http://www.visimarsrutai.lt/#/stop/result?stopId=28690",,,,,,
28691,"Žalčių st.",54.778160,25.351740,,,28691,"http://www.visimarsrutai.lt/#/stop/result?stopId=28691",,,,,,
28692,"Balsių mokykla",54.780580,25.359800,,,28692,"http://www.visimarsrutai.lt/#/stop/result?stopId=28692",,,,,,
28693,"Ragės st.",54.784950,25.351390,,,28693,"http://www.visimarsrutai.lt/#/stop/result?stopId=28693",,,,,,
28694,"Ragės st.",54.784680,25.351940,,,28694,"http://www.visimarsrutai.lt/#/stop/result?stopId=28694",,,,,,
28862,"Žilvičių st.",54.706840,25.380760,,,28862,"http://www.visimarsrutai.lt/#/stop/result?stopId=28862",,,,,,
28863,"Žilvičių st.",54.706890,25.381140,,,28863,"http://www.visimarsrutai.lt/#/stop/result?stopId=28863",,,,,,
28902,"Kalno st.",54.704910,25.393140,,,28902,"http://www.visimarsrutai.lt/#/stop/result?stopId=28902",,,,,,
28904,Jočionys,54.664740,25.161890,,,28904,"http://www.visimarsrutai.lt/#/stop/result?stopId=28904",,,,,,
28905,Jočionys,54.664130,25.161710,,,28905,"http://www.visimarsrutai.lt/#/stop/result?stopId=28905",,,,,,
28908,"Elektrinės st.",54.667740,25.162340,,,28908,"http://www.visimarsrutai.lt/#/stop/result?stopId=28908",,,,,,
28909,"Elektrinės st.",54.667460,25.162050,,,28909,"http://www.visimarsrutai.lt/#/stop/result?stopId=28909",,,,,,
28911,"Ramunių st.",54.632590,25.335310,,,28911,"http://www.visimarsrutai.lt/#/stop/result?stopId=28911",,,,,,
28913,Gariūnai,54.659990,25.160610,,,28913,"http://www.visimarsrutai.lt/#/stop/result?stopId=28913",,,,,,
28914,"Margirio st.",54.612560,25.187060,,,28914,"http://www.visimarsrutai.lt/#/stop/result?stopId=28914",,,,,,
28915,"Margirio st.",54.612880,25.186880,,,28915,"http://www.visimarsrutai.lt/#/stop/result?stopId=28915",,,,,,
29002,"Krakiškių sodai",54.800740,25.340140,,,29002,"http://www.visimarsrutai.lt/#/stop/result?stopId=29002",,,,,,
29003,"Krakiškių sodai",54.800910,25.340740,,,29003,"http://www.visimarsrutai.lt/#/stop/result?stopId=29003",,,,,,
29022,"Juodvarnių st.",54.722550,25.376320,,,29022,"http://www.visimarsrutai.lt/#/stop/result?stopId=29022",,,,,,
29023,"Juodvarnių st.",54.722280,25.376370,,,29023,"http://www.visimarsrutai.lt/#/stop/result?stopId=29023",,,,,,
29024,"Stanislovo Kerbedžio st.",54.720650,25.374150,,,29024,"http://www.visimarsrutai.lt/#/stop/result?stopId=29024",,,,,,
29025,"Moliakalnio st.",54.715780,25.355260,,,29025,"http://www.visimarsrutai.lt/#/stop/result?stopId=29025",,,,,,
29026,"Stanislovo Kerbedžio st.",54.720630,25.373090,,,29026,"http://www.visimarsrutai.lt/#/stop/result?stopId=29026",,,,,,
29027,"Stepono Kairio st.",54.720810,25.369230,,,29027,"http://www.visimarsrutai.lt/#/stop/result?stopId=29027",,,,,,
29028,"Moliakalnio st.",54.715830,25.355190,,,29028,"http://www.visimarsrutai.lt/#/stop/result?stopId=29028",,,,,,
29029,"Stepono Kairio st.",54.720850,25.370360,,,29029,"http://www.visimarsrutai.lt/#/stop/result?stopId=29029",,,,,,
29489,"Vilniaus Pergalė",54.614030,25.151910,,,29489,"http://www.visimarsrutai.lt/#/stop/result?stopId=29489",,,,,,
29566,"Žaliojo Visalaukio st.",54.778630,25.340440,,,29566,"http://www.visimarsrutai.lt/#/stop/result?stopId=29566",,,,,,
29567,"Žaliojo Visalaukio st.",54.778600,25.340720,,,29567,"http://www.visimarsrutai.lt/#/stop/result?stopId=29567",,,,,,
29582,Karveliškės,54.709381,25.100974,,,29582,"http://www.visimarsrutai.lt/#/stop/result?stopId=29582",,,,,,
29593,Padekaniškės,54.710530,25.161368,,,29593,"http://www.visimarsrutai.lt/#/stop/result?stopId=29593",,,,,,
29595,"Spaudos rūmai",54.699069,25.220529,,,29595,"http://www.visimarsrutai.lt/#/stop/result?stopId=29595",,,,,,
29612,Pylimėliai,54.718880,25.359940,,,29612,"http://www.visimarsrutai.lt/#/stop/result?stopId=29612",,,,,,
29613,"Tautų st.",54.651170,25.324420,,,29613,"http://www.visimarsrutai.lt/#/stop/result?stopId=29613",,,,,,
29614,"Tautų st.",54.651160,25.324700,,,29614,"http://www.visimarsrutai.lt/#/stop/result?stopId=29614",,,,,,
29615,"Duburio st.",54.707280,25.391680,,,29615,"http://www.visimarsrutai.lt/#/stop/result?stopId=29615",,,,,,
29616,Pylimėliai,54.718450,25.359470,,,29616,"http://www.visimarsrutai.lt/#/stop/result?stopId=29616",,,,,,
29804,"Sapieginės miškas",54.709830,25.357690,,,29804,"http://www.visimarsrutai.lt/#/stop/result?stopId=29804",,,,,,
29805,"Sapieginės miškas",54.710250,25.356870,,,29805,"http://www.visimarsrutai.lt/#/stop/result?stopId=29805",,,,,,
29806,"Vieversių st.",54.710650,25.320320,,,29806,"http://www.visimarsrutai.lt/#/stop/result?stopId=29806",,,,,,
29807,"Vieversių st.",54.709830,25.322570,,,29807,"http://www.visimarsrutai.lt/#/stop/result?stopId=29807",,,,,,
29808,"Lazdynų ligoninė",54.669000,25.209140,,,29808,"http://www.visimarsrutai.lt/#/stop/result?stopId=29808",,,,,,
29882,Kryžkelė,54.706330,25.205380,,,29882,"http://www.visimarsrutai.lt/#/stop/result?stopId=29882",,,,,,
30043,"Duburio st.",54.707310,25.390330,,,30043,"http://www.visimarsrutai.lt/#/stop/result?stopId=30043",,,,,,
30062,"Autobusų parkas",54.722360,25.295220,,,30062,"http://www.visimarsrutai.lt/#/stop/result?stopId=30062",,,,,,
30102,"Laimos st.",54.778100,25.355860,,,30102,"http://www.visimarsrutai.lt/#/stop/result?stopId=30102",,,,,,
30103,"Laimos st.",54.778040,25.356280,,,30103,"http://www.visimarsrutai.lt/#/stop/result?stopId=30103",,,,,,
30282,"Mykolo Biržiškos gimnazija",54.721330,25.218430,,,30282,"http://www.visimarsrutai.lt/#/stop/result?stopId=30282",,,,,,
30283,"Mykolo Biržiškos gimnazija",54.721530,25.217160,,,30283,"http://www.visimarsrutai.lt/#/stop/result?stopId=30283",,,,,,
30284,"Atžalyno st.",54.719290,25.214260,,,30284,"http://www.visimarsrutai.lt/#/stop/result?stopId=30284",,,,,,
30288,"Taikos st.",54.721260,25.221620,,,30288,"http://www.visimarsrutai.lt/#/stop/result?stopId=30288",,,,,,
30402,Salos,54.668620,25.103930,,,30402,"http://www.visimarsrutai.lt/#/stop/result?stopId=30402",,,,,,
30405,"Kunigiškių st.",54.670450,25.092970,,,30405,"http://www.visimarsrutai.lt/#/stop/result?stopId=30405",,,,,,
30408,"Šviesos st.",54.669590,25.096010,,,30408,"http://www.visimarsrutai.lt/#/stop/result?stopId=30408",,,,,,
30443,Lazdynėliai,54.663480,25.192680,,,30443,"http://www.visimarsrutai.lt/#/stop/result?stopId=30443",,,,,,
30542,"Aušros vartai",54.674170,25.288080,,,30542,"http://www.visimarsrutai.lt/#/stop/result?stopId=30542",,,,,,
30543,"Oro uostas",54.643310,25.279480,,,30543,"http://www.visimarsrutai.lt/#/stop/result?stopId=30543",,,,,,
30582,Pavilionys,54.741670,25.222220,,,30582,"http://www.visimarsrutai.lt/#/stop/result?stopId=30582",,,,,,
30583,Perkūnkiemis,54.739210,25.220160,,,30583,"http://www.visimarsrutai.lt/#/stop/result?stopId=30583",,,,,,
30584,Perkūnkiemis,54.738540,25.219260,,,30584,"http://www.visimarsrutai.lt/#/stop/result?stopId=30584",,,,,,
30744,"Titnago st.",54.649700,25.186130,,,30744,"http://www.visimarsrutai.lt/#/stop/result?stopId=30744",,,,,,
30746,Gureliai,54.646720,25.111760,,,30746,"http://www.visimarsrutai.lt/#/stop/result?stopId=30746",,,,,,
30747,"Kaimynų st.",54.636640,25.110770,,,30747,"http://www.visimarsrutai.lt/#/stop/result?stopId=30747",,,,,,
30748,Gureliai,54.646530,25.111800,,,30748,"http://www.visimarsrutai.lt/#/stop/result?stopId=30748",,,,,,
30749,"Jono Švažo st.",54.640640,25.108960,,,30749,"http://www.visimarsrutai.lt/#/stop/result?stopId=30749",,,,,,
30750,"Jono Švažo st.",54.640190,25.107860,,,30750,"http://www.visimarsrutai.lt/#/stop/result?stopId=30750",,,,,,
30882,Kalinas,54.807780,25.280810,,,30882,"http://www.visimarsrutai.lt/#/stop/result?stopId=30882",,,,,,
30883,"Didieji Gulbinai",54.803720,25.295940,,,30883,"http://www.visimarsrutai.lt/#/stop/result?stopId=30883",,,,,,
30884,Kalinas,54.807720,25.281470,,,30884,"http://www.visimarsrutai.lt/#/stop/result?stopId=30884",,,,,,
31482,"Mykolo Lietuvio st.",54.743800,25.226030,,,31482,"http://www.visimarsrutai.lt/#/stop/result?stopId=31482",,,,,,
31484,Lukiškės,54.690900,25.270720,,,31484,"http://www.visimarsrutai.lt/#/stop/result?stopId=31484",,,,,,
31784,"Alyvų st.",54.804920,25.271280,,,31784,"http://www.visimarsrutai.lt/#/stop/result?stopId=31784",,,,,,
32152,"Povilo Lukšio st.",54.710970,25.300670,,,32152,"http://www.visimarsrutai.lt/#/stop/result?stopId=32152",,,,,,
33003,Lukiškės,54.690370,25.272310,,,33003,"http://www.visimarsrutai.lt/#/stop/result?stopId=33003",,,,,,
33623,"Kovo 11-osios st.",54.674500,25.088270,,,33623,"http://www.visimarsrutai.lt/#/stop/result?stopId=33623",,,,,,
33742,"1-asis paplūdimys",54.732650,25.298310,,,33742,"http://www.visimarsrutai.lt/#/stop/result?stopId=33742",,,,,,
33743,"Lizdeikos st.",54.728980,25.313380,,,33743,"http://www.visimarsrutai.lt/#/stop/result?stopId=33743",,,,,,
33744,"Rato st.",54.730610,25.309520,,,33744,"http://www.visimarsrutai.lt/#/stop/result?stopId=33744",,,,,,
33745,"Vaidilutės st.",54.736560,25.294600,,,33745,"http://www.visimarsrutai.lt/#/stop/result?stopId=33745",,,,,,
33747,"Bruknių st.",54.743260,25.304290,,,33747,"http://www.visimarsrutai.lt/#/stop/result?stopId=33747",,,,,,
33748,"Svajonių st.",54.741090,25.312760,,,33748,"http://www.visimarsrutai.lt/#/stop/result?stopId=33748",,,,,,
33749,"Grybautojų st.",54.732580,25.317740,,,33749,"http://www.visimarsrutai.lt/#/stop/result?stopId=33749",,,,,,
33750,"Rytų st.",54.690160,25.431800,,,33750,"http://www.visimarsrutai.lt/#/stop/result?stopId=33750",,,,,,
33751,"Gerovės st.",54.690730,25.412080,,,33751,"http://www.visimarsrutai.lt/#/stop/result?stopId=33751",,,,,,
33752,"2-asis paplūdimys",54.741900,25.294840,,,33752,"http://www.visimarsrutai.lt/#/stop/result?stopId=33752",,,,,,
33753,"Karklėnų st.",54.690360,25.426680,,,33753,"http://www.visimarsrutai.lt/#/stop/result?stopId=33753",,,,,,
33754,"Žvirblių st.",54.690700,25.418910,,,33754,"http://www.visimarsrutai.lt/#/stop/result?stopId=33754",,,,,,
33755,"Žvirblių st.",54.690590,25.418440,,,33755,"http://www.visimarsrutai.lt/#/stop/result?stopId=33755",,,,,,
33756,"Gerovės st.",54.690650,25.412530,,,33756,"http://www.visimarsrutai.lt/#/stop/result?stopId=33756",,,,,,
33757,"9-asis kilometras",54.657750,25.374060,,,33757,"http://www.visimarsrutai.lt/#/stop/result?stopId=33757",,,,,,
33758,"Karklėnų st.",54.690420,25.426950,,,33758,"http://www.visimarsrutai.lt/#/stop/result?stopId=33758",,,,,,
33759,"Šumsko kryptis",54.659340,25.363060,,,33759,"http://www.visimarsrutai.lt/#/stop/result?stopId=33759",,,,,,
33760,"Šumsko kryptis",54.658840,25.364940,,,33760,"http://www.visimarsrutai.lt/#/stop/result?stopId=33760",,,,,,
33762,Slėnis,54.657530,25.393330,,,33762,"http://www.visimarsrutai.lt/#/stop/result?stopId=33762",,,,,,
33763,Slėnis,54.657140,25.394390,,,33763,"http://www.visimarsrutai.lt/#/stop/result?stopId=33763",,,,,,
33764,"Naujosios Vilnios sankryža",54.653890,25.408690,,,33764,"http://www.visimarsrutai.lt/#/stop/result?stopId=33764",,,,,,
33765,"2-asis Didžiasalis",54.648020,25.406620,,,33765,"http://www.visimarsrutai.lt/#/stop/result?stopId=33765",,,,,,
33766,"Grigaičių žiedas",54.663290,25.414980,,,33766,"http://www.visimarsrutai.lt/#/stop/result?stopId=33766",,,,,,
33767,"9-asis kilometras",54.657470,25.376030,,,33767,"http://www.visimarsrutai.lt/#/stop/result?stopId=33767",,,,,,
33768,"1-asis Didžiasalis",54.640010,25.401360,,,33768,"http://www.visimarsrutai.lt/#/stop/result?stopId=33768",,,,,,
33769,"2-asis Didžiasalis",54.647770,25.406210,,,33769,"http://www.visimarsrutai.lt/#/stop/result?stopId=33769",,,,,,
33770,"Naujosios Vilnios sankryža",54.652560,25.409020,,,33770,"http://www.visimarsrutai.lt/#/stop/result?stopId=33770",,,,,,
33771,"1-asis Didžiasalis",54.638610,25.399940,,,33771,"http://www.visimarsrutai.lt/#/stop/result?stopId=33771",,,,,,
34323,"Geležinio Vilko st.",54.758480,25.272290,,,34323,"http://www.visimarsrutai.lt/#/stop/result?stopId=34323",,,,,,
34324,"Geležinio Vilko st.",54.757620,25.271830,,,34324,"http://www.visimarsrutai.lt/#/stop/result?stopId=34324",,,,,,
34623,Kairėnai,54.736460,25.403790,,,34623,"http://www.visimarsrutai.lt/#/stop/result?stopId=34623",,,,,,
34624,Kairėnai,54.736640,25.402100,,,34624,"http://www.visimarsrutai.lt/#/stop/result?stopId=34624",,,,,,
34625,Kairėnai,54.737190,25.402450,,,34625,"http://www.visimarsrutai.lt/#/stop/result?stopId=34625",,,,,,
35404,"Mykolo Lietuvio st.",54.742540,25.226920,,,35404,"http://www.visimarsrutai.lt/#/stop/result?stopId=35404",,,,,,
35463,Valai,54.700010,25.063670,,,35463,"http://www.visimarsrutai.lt/#/stop/result?stopId=35463",,,,,,
35464,"Vokės sodai",54.683460,25.070750,,,35464,"http://www.visimarsrutai.lt/#/stop/result?stopId=35464",,,,,,
35465,"Vokės sodai",54.684030,25.070350,,,35465,"http://www.visimarsrutai.lt/#/stop/result?stopId=35465",,,,,,
35466,"Kauno Vokės st.",54.680660,25.074730,,,35466,"http://www.visimarsrutai.lt/#/stop/result?stopId=35466",,,,,,
35467,"Kauno Vokės st.",54.680590,25.075040,,,35467,"http://www.visimarsrutai.lt/#/stop/result?stopId=35467",,,,,,
36643,"Viršilų st.",54.703300,25.218240,,,36643,"http://www.visimarsrutai.lt/#/stop/result?stopId=36643",,,,,,
38586,Lazdynėliai,54.662610,25.191960,,,38586,"http://www.visimarsrutai.lt/#/stop/result?stopId=38586",,,,,,
38666,Miškadvaris,54.753800,25.414030,,,38666,"http://www.visimarsrutai.lt/#/stop/result?stopId=38666",,,,,,
38667,"Inovacijų pramonės parkas",54.753130,25.415400,,,38667,"http://www.visimarsrutai.lt/#/stop/result?stopId=38667",,,,,,
38668,Stotis,54.671910,25.283380,,,38668,"http://www.visimarsrutai.lt/#/stop/result?stopId=38668",,,,,,
38669,"Liepų st.",54.762380,25.209770,,,38669,"http://www.visimarsrutai.lt/#/stop/result?stopId=38669",,,,,,
38670,"Tomo Žebrausko st.",54.749290,25.201030,,,38670,"http://www.visimarsrutai.lt/#/stop/result?stopId=38670",,,,,,
38671,"Petro Baublio st.",54.750860,25.284970,,,38671,"http://www.visimarsrutai.lt/#/stop/result?stopId=38671",,,,,,
38672,"Petro Baublio st.",54.750520,25.283550,,,38672,"http://www.visimarsrutai.lt/#/stop/result?stopId=38672",,,,,,
38673,Bajorai,54.756820,25.237830,,,38673,"http://www.visimarsrutai.lt/#/stop/result?stopId=38673",,,,,,
38674,"Šaulio st.",54.757590,25.229380,,,38674,"http://www.visimarsrutai.lt/#/stop/result?stopId=38674",,,,,,
38675,"Šaulio st.",54.757720,25.229000,,,38675,"http://www.visimarsrutai.lt/#/stop/result?stopId=38675",,,,,,
38676,"Aušros st.",54.759590,25.207340,,,38676,"http://www.visimarsrutai.lt/#/stop/result?stopId=38676",,,,,,
38678,Vismaliukai,54.752280,25.416320,,,38678,"http://www.visimarsrutai.lt/#/stop/result?stopId=38678",,,,,,
38679,"Kelpių st.",54.755560,25.195980,,,38679,"http://www.visimarsrutai.lt/#/stop/result?stopId=38679",,,,,,
38680,"Juozo Kamarausko st.",54.752480,25.191730,,,38680,"http://www.visimarsrutai.lt/#/stop/result?stopId=38680",,,,,,
38681,"Gegliškių st.",54.750110,25.186650,,,38681,"http://www.visimarsrutai.lt/#/stop/result?stopId=38681",,,,,,
38682,"Vaikų ligoninė",54.755240,25.280880,,,38682,"http://www.visimarsrutai.lt/#/stop/result?stopId=38682",,,,,,
38766,"Grigiškių poliklinika",54.671940,25.089460,,,38766,"http://www.visimarsrutai.lt/#/stop/result?stopId=38766",,,,,,
38767,"Grigiškių poliklinika",54.672780,25.090040,,,38767,"http://www.visimarsrutai.lt/#/stop/result?stopId=38767",,,,,,
40022,"Ąžuolyno st.",54.706950,25.237690,,,40022,"http://www.visimarsrutai.lt/#/stop/result?stopId=40022",,,,,,
40023,"Ąžuolyno st.",54.707550,25.237950,,,40023,"http://www.visimarsrutai.lt/#/stop/result?stopId=40023",,,,,,
40026,Viršuliškės,54.706490,25.226760,,,40026,"http://www.visimarsrutai.lt/#/stop/result?stopId=40026",,,,,,
40027,"Čiunės Sugiharos st.",54.705100,25.234050,,,40027,"http://www.visimarsrutai.lt/#/stop/result?stopId=40027",,,,,,
40028,"Čiunės Sugiharos st.",54.704790,25.235270,,,40028,"http://www.visimarsrutai.lt/#/stop/result?stopId=40028",,,,,,
40029,"Paukščių takas",54.679720,25.206990,,,40029,"http://www.visimarsrutai.lt/#/stop/result?stopId=40029",,,,,,
40268,Stotis,54.668240,25.276360,,,40268,"http://www.visimarsrutai.lt/#/stop/result?stopId=40268",,,,,,
40269,"Mėtų st.",54.759130,25.219410,,,40269,"http://www.visimarsrutai.lt/#/stop/result?stopId=40269",,,,,,
40271,"Mėtų st.",54.759300,25.219300,,,40271,"http://www.visimarsrutai.lt/#/stop/result?stopId=40271",,,,,,
40584,"Vytauto Andriaus Graičiūno st.",54.608150,25.159420,,,40584,"http://www.visimarsrutai.lt/#/stop/result?stopId=40584",,,,,,
40585,"Degučių st.",54.592140,25.159460,,,40585,"http://www.visimarsrutai.lt/#/stop/result?stopId=40585",,,,,,
40586,"Degučių st.",54.592500,25.158040,,,40586,"http://www.visimarsrutai.lt/#/stop/result?stopId=40586",,,,,,
40587,"Jaunystės st.",54.588630,25.168000,,,40587,"http://www.visimarsrutai.lt/#/stop/result?stopId=40587",,,,,,
40588,"Jaunystės st.",54.587950,25.169230,,,40588,"http://www.visimarsrutai.lt/#/stop/result?stopId=40588",,,,,,
40589,Daniliškės,54.600880,25.137660,,,40589,"http://www.visimarsrutai.lt/#/stop/result?stopId=40589",,,,,,
40662,"Vaikų ligoninė",54.756330,25.281310,,,40662,"http://www.visimarsrutai.lt/#/stop/result?stopId=40662",,,,,,
40663,Saltoniškės,54.702390,25.264380,,,40663,"http://www.visimarsrutai.lt/#/stop/result?stopId=40663",,,,,,
40665,"Verslo st.",54.637010,25.258140,,,40665,"http://www.visimarsrutai.lt/#/stop/result?stopId=40665",,,,,,
40666,Kairėnai,54.736230,25.400420,,,40666,"http://www.visimarsrutai.lt/#/stop/result?stopId=40666",,,,,,
40667,Kairėnai,54.736250,25.400820,,,40667,"http://www.visimarsrutai.lt/#/stop/result?stopId=40667",,,,,,
